Time,header.seq,header.stamp.secs,header.stamp.nsecs,header.frame_id,name,position_0,position_1,position_2,position_3,velocity_0,velocity_1,velocity_2,velocity_3,effort_0,effort_1,effort_2,effort_3
1737149281.1325302,8037,1737149357,939867436,,"['front_left_wheel', 'front_right_wheel', 'rear_left_wheel', 'rear_right_wheel']",359.0854027861902,232.60448213204117,359.0854027861902,232.60448213204117,0.0,0.0,0.0,0.0,0.0,0.0,0.0,0.0
1737149281.1326,8038,1737149358,39001045,,"['front_left_wheel', 'front_right_wheel', 'rear_left_wheel', 'rear_right_wheel']",359.0854027861902,232.60448213204117,359.0854027861902,232.60448213204117,0.0,0.0,0.0,0.0,0.0,0.0,0.0,0.0
1737149281.1327257,8039,1737149358,137709692,,"['front_left_wheel', 'front_right_wheel', 'rear_left_wheel', 'rear_right_wheel']",359.0854027861902,232.60448213204117,359.0854027861902,232.60448213204117,0.0,0.0,0.0,0.0,0.0,0.0,0.0,0.0
1737149281.1328886,8040,1737149358,237166411,,"['front_left_wheel', 'front_right_wheel', 'rear_left_wheel', 'rear_right_wheel']",359.0854027861902,232.60448213204117,359.0854027861902,232.60448213204117,0.0,0.0,0.0,0.0,0.0,0.0,0.0,0.0
1737149281.1329865,8041,1737149358,336595685,,"['front_left_wheel', 'front_right_wheel', 'rear_left_wheel', 'rear_right_wheel']",359.0854027861902,232.60448213204117,359.0854027861902,232.60448213204117,0.0,0.0,0.0,0.0,0.0,0.0,0.0,0.0
1737149281.1330807,8042,1737149358,435122948,,"['front_left_wheel', 'front_right_wheel', 'rear_left_wheel', 'rear_right_wheel']",359.0854027861902,232.60448213204117,359.0854027861902,232.60448213204117,0.0,0.0,0.0,0.0,0.0,0.0,0.0,0.0
1737149281.209496,8043,1737149358,545534283,,"['front_left_wheel', 'front_right_wheel', 'rear_left_wheel', 'rear_right_wheel']",359.0854027861902,232.60448213204117,359.0854027861902,232.60448213204117,0.0,0.0,0.0,0.0,0.0,0.0,0.0,0.0
1737149281.3086152,8044,1737149358,644593500,,"['front_left_wheel', 'front_right_wheel', 'rear_left_wheel', 'rear_right_wheel']",359.0854027861902,232.60448213204117,359.0854027861902,232.60448213204117,0.0,0.0,0.0,0.0,0.0,0.0,0.0,0.0
1737149281.4071984,8045,1737149358,743323659,,"['front_left_wheel', 'front_right_wheel', 'rear_left_wheel', 'rear_right_wheel']",359.0854027861902,232.60448213204117,359.0854027861902,232.60448213204117,0.0,0.0,0.0,0.0,0.0,0.0,0.0,0.0
1737149281.5061667,8046,1737149358,842172947,,"['front_left_wheel', 'front_right_wheel', 'rear_left_wheel', 'rear_right_wheel']",359.0854027861902,232.60448213204117,359.0854027861902,232.60448213204117,0.0,0.0,0.0,0.0,0.0,0.0,0.0,0.0
1737149281.6054409,8047,1737149358,941284409,,"['front_left_wheel', 'front_right_wheel', 'rear_left_wheel', 'rear_right_wheel']",359.0854027861902,232.60448213204117,359.0854027861902,232.60448213204117,0.0,0.0,0.0,0.0,0.0,0.0,0.0,0.0
1737149281.705037,8048,1737149359,40018998,,"['front_left_wheel', 'front_right_wheel', 'rear_left_wheel', 'rear_right_wheel']",359.0854027861902,232.60448213204117,359.0854027861902,232.60448213204117,0.0,0.0,0.0,0.0,0.0,0.0,0.0,0.0
1737149281.8029833,8049,1737149359,138856188,,"['front_left_wheel', 'front_right_wheel', 'rear_left_wheel', 'rear_right_wheel']",359.0854027861902,232.60448213204117,359.0854027861902,232.60448213204117,0.0,0.0,0.0,0.0,0.0,0.0,0.0,0.0
1737149281.9018135,8050,1737149359,237822208,,"['front_left_wheel', 'front_right_wheel', 'rear_left_wheel', 'rear_right_wheel']",359.0854027861902,232.60448213204117,359.0854027861902,232.60448213204117,0.0,0.0,0.0,0.0,0.0,0.0,0.0,0.0
1737149282.000862,8051,1737149359,336770207,,"['front_left_wheel', 'front_right_wheel', 'rear_left_wheel', 'rear_right_wheel']",359.0854027861902,232.60448213204117,359.0854027861902,232.60448213204117,0.0,0.0,0.0,0.0,0.0,0.0,0.0,0.0
1737149282.099557,8052,1737149359,435798163,,"['front_left_wheel', 'front_right_wheel', 'rear_left_wheel', 'rear_right_wheel']",359.0854027861902,232.60448213204117,359.0854027861902,232.60448213204117,0.0,0.0,0.0,0.0,0.0,0.0,0.0,0.0
1737149282.1985097,8053,1737149359,534686008,,"['front_left_wheel', 'front_right_wheel', 'rear_left_wheel', 'rear_right_wheel']",359.0854027861902,232.60448213204117,359.0854027861902,232.60448213204117,0.0,0.0,0.0,0.0,0.0,0.0,0.0,0.0
1737149282.3097599,8054,1737149359,645818363,,"['front_left_wheel', 'front_right_wheel', 'rear_left_wheel', 'rear_right_wheel']",359.0854027861902,232.60448213204117,359.0854027861902,232.60448213204117,0.0,0.0,0.0,0.0,0.0,0.0,0.0,0.0
1737149282.408582,8055,1737149359,744403233,,"['front_left_wheel', 'front_right_wheel', 'rear_left_wheel', 'rear_right_wheel']",359.0854027861902,232.60448213204117,359.0854027861902,232.60448213204117,0.0,0.0,0.0,0.0,0.0,0.0,0.0,0.0
1737149282.507152,8056,1737149359,843101597,,"['front_left_wheel', 'front_right_wheel', 'rear_left_wheel', 'rear_right_wheel']",359.0854027861902,232.60448213204117,359.0854027861902,232.60448213204117,0.0,0.0,0.0,0.0,0.0,0.0,0.0,0.0
1737149282.6066422,8057,1737149359,942230727,,"['front_left_wheel', 'front_right_wheel', 'rear_left_wheel', 'rear_right_wheel']",359.0854027861902,232.60448213204117,359.0854027861902,232.60448213204117,0.0,0.0,0.0,0.0,0.0,0.0,0.0,0.0
1737149282.7052941,8058,1737149360,40751103,,"['front_left_wheel', 'front_right_wheel', 'rear_left_wheel', 'rear_right_wheel']",359.0854027861902,232.60448213204117,359.0854027861902,232.60448213204117,0.0,0.0,0.0,0.0,0.0,0.0,0.0,0.0
1737149282.8040178,8059,1737149360,139981911,,"['front_left_wheel', 'front_right_wheel', 'rear_left_wheel', 'rear_right_wheel']",359.0854027861902,232.60448213204117,359.0854027861902,232.60448213204117,0.0,0.0,0.0,0.0,0.0,0.0,0.0,0.0
1737149282.9050157,8060,1737149360,239681014,,"['front_left_wheel', 'front_right_wheel', 'rear_left_wheel', 'rear_right_wheel']",359.0854027861902,232.60448213204117,359.0854027861902,232.60448213204117,0.0,0.0,0.0,0.0,0.0,0.0,0.0,0.0
1737149283.002813,8061,1737149360,337885501,,"['front_left_wheel', 'front_right_wheel', 'rear_left_wheel', 'rear_right_wheel']",359.0854027861902,232.60448213204117,359.0854027861902,232.60448213204117,0.0,0.0,0.0,0.0,0.0,0.0,0.0,0.0
1737149283.1020315,8062,1737149360,437571249,,"['front_left_wheel', 'front_right_wheel', 'rear_left_wheel', 'rear_right_wheel']",359.0854027861902,232.60448213204117,359.0854027861902,232.60448213204117,0.0,0.0,0.0,0.0,0.0,0.0,0.0,0.0
1737149283.2005515,8063,1737149360,536677933,,"['front_left_wheel', 'front_right_wheel', 'rear_left_wheel', 'rear_right_wheel']",359.0854027861902,232.60448213204117,359.0854027861902,232.60448213204117,0.0,0.0,0.0,0.0,0.0,0.0,0.0,0.0
1737149283.301991,8064,1737149360,635219436,,"['front_left_wheel', 'front_right_wheel', 'rear_left_wheel', 'rear_right_wheel']",359.0854027861902,232.60448213204117,359.0854027861902,232.60448213204117,0.0,0.0,0.0,0.0,0.0,0.0,0.0,0.0
1737149283.4100132,8065,1737149360,745702252,,"['front_left_wheel', 'front_right_wheel', 'rear_left_wheel', 'rear_right_wheel']",359.0854027861902,232.60448213204117,359.0854027861902,232.60448213204117,0.0,0.0,0.0,0.0,0.0,0.0,0.0,0.0
1737149283.5089235,8066,1737149360,844317196,,"['front_left_wheel', 'front_right_wheel', 'rear_left_wheel', 'rear_right_wheel']",359.0854027861902,232.60448213204117,359.0854027861902,232.60448213204117,0.0,0.0,0.0,0.0,0.0,0.0,0.0,0.0
1737149283.6079636,8067,1737149360,943689950,,"['front_left_wheel', 'front_right_wheel', 'rear_left_wheel', 'rear_right_wheel']",359.0854027861902,232.60448213204117,359.0854027861902,232.60448213204117,0.0,0.0,0.0,0.0,0.0,0.0,0.0,0.0
1737149283.7065027,8068,1737149361,42343585,,"['front_left_wheel', 'front_right_wheel', 'rear_left_wheel', 'rear_right_wheel']",359.0854027861902,232.60448213204117,359.0854027861902,232.60448213204117,0.0,0.0,0.0,0.0,0.0,0.0,0.0,0.0
1737149283.805386,8069,1737149361,141300887,,"['front_left_wheel', 'front_right_wheel', 'rear_left_wheel', 'rear_right_wheel']",359.0854027861902,232.60448213204117,359.0854027861902,232.60448213204117,0.0,0.0,0.0,0.0,0.0,0.0,0.0,0.0
1737149283.9052866,8070,1737149361,240142082,,"['front_left_wheel', 'front_right_wheel', 'rear_left_wheel', 'rear_right_wheel']",359.0854027861902,232.60448213204117,359.0854027861902,232.60448213204117,0.0,0.0,0.0,0.0,0.0,0.0,0.0,0.0
1737149284.003182,8071,1737149361,339259878,,"['front_left_wheel', 'front_right_wheel', 'rear_left_wheel', 'rear_right_wheel']",359.0854027861902,232.60448213204117,359.0854027861902,232.60448213204117,0.0,0.0,0.0,0.0,0.0,0.0,0.0,0.0
1737149284.10246,8072,1737149361,437755289,,"['front_left_wheel', 'front_right_wheel', 'rear_left_wheel', 'rear_right_wheel']",359.0854027861902,232.60448213204117,359.0854027861902,232.60448213204117,0.0,0.0,0.0,0.0,0.0,0.0,0.0,0.0
1737149284.2011335,8073,1737149361,537496175,,"['front_left_wheel', 'front_right_wheel', 'rear_left_wheel', 'rear_right_wheel']",359.0854027861902,232.60448213204117,359.0854027861902,232.60448213204117,0.0,0.0,0.0,0.0,0.0,0.0,0.0,0.0
1737149284.2999191,8074,1737149361,636080868,,"['front_left_wheel', 'front_right_wheel', 'rear_left_wheel', 'rear_right_wheel']",359.0854027861902,232.60448213204117,359.0854027861902,232.60448213204117,0.0,0.0,0.0,0.0,0.0,0.0,0.0,0.0
1737149284.3994212,8075,1737149361,735702424,,"['front_left_wheel', 'front_right_wheel', 'rear_left_wheel', 'rear_right_wheel']",359.0854027861902,232.60448213204117,359.0854027861902,232.60448213204117,0.0,0.0,0.0,0.0,0.0,0.0,0.0,0.0
1737149284.5098295,8076,1737149361,845526088,,"['front_left_wheel', 'front_right_wheel', 'rear_left_wheel', 'rear_right_wheel']",359.0854027861902,232.60448213204117,359.0854027861902,232.60448213204117,0.0,0.0,0.0,0.0,0.0,0.0,0.0,0.0
1737149284.60764,8077,1737149361,943774905,,"['front_left_wheel', 'front_right_wheel', 'rear_left_wheel', 'rear_right_wheel']",359.0854027861902,232.60448213204117,359.0854027861902,232.60448213204117,0.0,0.0,0.0,0.0,0.0,0.0,0.0,0.0
1737149284.7071486,8078,1737149362,43322555,,"['front_left_wheel', 'front_right_wheel', 'rear_left_wheel', 'rear_right_wheel']",359.0854027861902,232.60448213204117,359.0854027861902,232.60448213204117,0.0,0.0,0.0,0.0,0.0,0.0,0.0,0.0
1737149284.806219,8079,1737149362,142173843,,"['front_left_wheel', 'front_right_wheel', 'rear_left_wheel', 'rear_right_wheel']",359.0854027861902,232.60448213204117,359.0854027861902,232.60448213204117,0.0,0.0,0.0,0.0,0.0,0.0,0.0,0.0
1737149284.906306,8080,1737149362,241776215,,"['front_left_wheel', 'front_right_wheel', 'rear_left_wheel', 'rear_right_wheel']",359.0854027861902,232.60448213204117,359.0854027861902,232.60448213204117,0.0,0.0,0.0,0.0,0.0,0.0,0.0,0.0
1737149285.0045633,8081,1737149362,340017797,,"['front_left_wheel', 'front_right_wheel', 'rear_left_wheel', 'rear_right_wheel']",359.0854027861902,232.60448213204117,359.0854027861902,232.60448213204117,0.0,0.0,0.0,0.0,0.0,0.0,0.0,0.0
1737149285.1028697,8082,1737149362,439029389,,"['front_left_wheel', 'front_right_wheel', 'rear_left_wheel', 'rear_right_wheel']",359.0854027861902,232.60448213204117,359.0854027861902,232.60448213204117,0.0,0.0,0.0,0.0,0.0,0.0,0.0,0.0
1737149285.2025747,8083,1737149362,538832843,,"['front_left_wheel', 'front_right_wheel', 'rear_left_wheel', 'rear_right_wheel']",359.0854027861902,232.60448213204117,359.0854027861902,232.60448213204117,0.0,0.0,0.0,0.0,0.0,0.0,0.0,0.0
1737149285.3007824,8084,1737149362,637065443,,"['front_left_wheel', 'front_right_wheel', 'rear_left_wheel', 'rear_right_wheel']",359.0854027861902,232.60448213204117,359.0854027861902,232.60448213204117,0.0,0.0,0.0,0.0,0.0,0.0,0.0,0.0
1737149285.4006286,8085,1737149362,736756069,,"['front_left_wheel', 'front_right_wheel', 'rear_left_wheel', 'rear_right_wheel']",359.0854027861902,232.60448213204117,359.0854027861902,232.60448213204117,0.0,0.0,0.0,0.0,0.0,0.0,0.0,0.0
1737149285.4987743,8086,1737149362,835116410,,"['front_left_wheel', 'front_right_wheel', 'rear_left_wheel', 'rear_right_wheel']",359.0854027861902,232.60448213204117,359.0854027861902,232.60448213204117,0.0,0.0,0.0,0.0,0.0,0.0,0.0,0.0
1737149285.6094809,8087,1737149362,945703896,,"['front_left_wheel', 'front_right_wheel', 'rear_left_wheel', 'rear_right_wheel']",359.0854027861902,232.60448213204117,359.0854027861902,232.60448213204117,0.0,0.0,0.0,0.0,0.0,0.0,0.0,0.0
1737149285.708193,8088,1737149363,43819069,,"['front_left_wheel', 'front_right_wheel', 'rear_left_wheel', 'rear_right_wheel']",359.0854027861902,232.60448213204117,359.0854027861902,232.60448213204117,0.0,0.0,0.0,0.0,0.0,0.0,0.0,0.0
1737149285.807093,8089,1737149363,143377712,,"['front_left_wheel', 'front_right_wheel', 'rear_left_wheel', 'rear_right_wheel']",359.10357359176254,232.62265293761357,359.10357359176254,232.62265293761357,1.6959418534221686,1.8776499091459722,1.6959418534221686,1.8776499091459722,0.0,0.0,0.0,0.0
1737149285.9064877,8090,1737149363,242405696,,"['front_left_wheel', 'front_right_wheel', 'rear_left_wheel', 'rear_right_wheel']",359.2610539067232,232.786190187765,359.2610539067232,232.786190187765,1.6959418534221686,1.8776499091459722,1.6959418534221686,1.8776499091459722,0.0,0.0,0.0,0.0
1737149286.0060914,8091,1737149363,341221881,,"['front_left_wheel', 'front_right_wheel', 'rear_left_wheel', 'rear_right_wheel']",359.4245911568746,233.00423985463357,359.4245911568746,233.00423985463357,1.635372501514234,1.9382192610539069,1.635372501514234,1.9382192610539069,0.0,0.0,0.0,0.0
1737149286.1038616,8092,1737149363,439959185,,"['front_left_wheel', 'front_right_wheel', 'rear_left_wheel', 'rear_right_wheel']",359.58207147183526,233.1556632344034,359.58207147183526,233.1556632344034,1.635372501514234,1.9382192610539069,1.635372501514234,1.9382192610539069,0.0,0.0,0.0,0.0
1737149286.2027636,8093,1737149363,539071364,,"['front_left_wheel', 'front_right_wheel', 'rear_left_wheel', 'rear_right_wheel']",359.76377952755905,233.37371290127197,359.76377952755905,233.37371290127197,1.5748031496062993,1.9987886129618415,1.5748031496062993,1.9987886129618415,0.0,0.0,0.0,0.0
1737149286.3017402,8094,1737149363,637717313,,"['front_left_wheel', 'front_right_wheel', 'rear_left_wheel', 'rear_right_wheel']",359.8970321017565,233.5554209569958,359.8970321017565,233.5554209569958,1.5748031496062993,1.9987886129618415,1.5748031496062993,1.9987886129618415,0.0,0.0,0.0,0.0
1737149286.4011827,8095,1737149363,737687464,,"['front_left_wheel', 'front_right_wheel', 'rear_left_wheel', 'rear_right_wheel']",360.06056935190793,233.75529981829197,360.06056935190793,233.75529981829197,1.5142337976983646,2.059357964869776,1.5142337976983646,2.059357964869776,0.0,0.0,0.0,0.0
1737149286.5002792,8096,1737149363,836507350,,"['front_left_wheel', 'front_right_wheel', 'rear_left_wheel', 'rear_right_wheel']",360.2301635372501,233.9915202907329,360.2301635372501,233.9915202907329,1.5142337976983646,2.059357964869776,1.5142337976983646,2.059357964869776,0.0,0.0,0.0,0.0
1737149286.5991232,8097,1737149363,935574365,,"['front_left_wheel', 'front_right_wheel', 'rear_left_wheel', 'rear_right_wheel']",360.34524530587527,234.14900060569354,360.34524530587527,234.14900060569354,1.45366444579043,2.1199273167777104,1.45366444579043,2.1199273167777104,0.0,0.0,0.0,0.0
1737149286.709377,8098,1737149364,45480449,,"['front_left_wheel', 'front_right_wheel', 'rear_left_wheel', 'rear_right_wheel']",360.5087825560267,234.39127801332526,360.5087825560267,234.39127801332526,1.45366444579043,2.1199273167777104,1.45366444579043,2.1199273167777104,0.0,0.0,0.0,0.0
1737149286.8080413,8099,1737149364,144271906,,"['front_left_wheel', 'front_right_wheel', 'rear_left_wheel', 'rear_right_wheel']",360.67231980617805,234.633555420957,360.67231980617805,234.633555420957,1.3930950938824955,2.180496668685645,1.3930950938824955,2.180496668685645,0.0,0.0,0.0,0.0
1737149286.9073365,8100,1737149364,243792382,,"['front_left_wheel', 'front_right_wheel', 'rear_left_wheel', 'rear_right_wheel']",360.78134463961237,234.8031496062992,360.78134463961237,234.8031496062992,1.3930950938824955,2.180496668685645,1.3930950938824955,2.180496668685645,0.0,0.0,0.0,0.0
1737149287.0058916,8101,1737149364,341898546,,"['front_left_wheel', 'front_right_wheel', 'rear_left_wheel', 'rear_right_wheel']",360.938824954573,235.06359781950331,360.938824954573,235.06359781950331,1.3325257419745609,2.2410660205935797,1.3325257419745609,2.2410660205935797,0.0,0.0,0.0,0.0
1737149287.1051939,8102,1737149364,440873748,,"['front_left_wheel', 'front_right_wheel', 'rear_left_wheel', 'rear_right_wheel']",361.06602059357965,235.30587522713506,361.06602059357965,235.30587522713506,1.2719563900666262,2.301635372501514,1.2719563900666262,2.301635372501514,0.0,0.0,0.0,0.0
1737149287.205294,8103,1737149364,540667668,,"['front_left_wheel', 'front_right_wheel', 'rear_left_wheel', 'rear_right_wheel']",361.18110236220474,235.48152634766808,361.18110236220474,235.48152634766808,1.2719563900666262,2.301635372501514,1.2719563900666262,2.301635372501514,0.0,0.0,0.0,0.0
1737149287.3035514,8104,1737149364,638851845,,"['front_left_wheel', 'front_right_wheel', 'rear_left_wheel', 'rear_right_wheel']",361.3264688067838,235.748031496063,361.3264688067838,235.748031496063,1.2113870381586918,2.362204724409449,1.2113870381586918,2.362204724409449,0.0,0.0,0.0,0.0
1737149287.4027147,8105,1737149364,738728198,,"['front_left_wheel', 'front_right_wheel', 'rear_left_wheel', 'rear_right_wheel']",361.4173228346457,235.923682616596,361.4173228346457,235.923682616596,1.2113870381586918,2.362204724409449,1.2113870381586918,2.362204724409449,0.0,0.0,0.0,0.0
1737149287.5014515,8106,1737149364,837610740,,"['front_left_wheel', 'front_right_wheel', 'rear_left_wheel', 'rear_right_wheel']",361.5566323440339,236.2023016353725,361.5566323440339,236.2023016353725,1.150817686250757,2.4227740763173835,1.150817686250757,2.4227740763173835,0.0,0.0,0.0,0.0
1737149287.600788,8107,1737149364,936762833,,"['front_left_wheel', 'front_right_wheel', 'rear_left_wheel', 'rear_right_wheel']",361.6474863718958,236.4688067837674,361.6474863718958,236.4688067837674,1.150817686250757,2.4227740763173835,1.150817686250757,2.4227740763173835,0.0,0.0,0.0,0.0
1737149287.699408,8108,1737149365,35535146,,"['front_left_wheel', 'front_right_wheel', 'rear_left_wheel', 'rear_right_wheel']",361.78073894609327,236.6807995154452,361.78073894609327,236.6807995154452,1.0902483343428224,2.483343428225318,1.0902483343428224,2.483343428225318,0.0,0.0,0.0,0.0
1737149287.8096635,8109,1737149365,145551883,,"['front_left_wheel', 'front_right_wheel', 'rear_left_wheel', 'rear_right_wheel']",361.90793458509995,236.9715324046033,361.90793458509995,236.9715324046033,1.0902483343428224,2.483343428225318,1.0902483343428224,2.483343428225318,0.0,0.0,0.0,0.0
1737149287.9080682,8110,1737149365,244362725,,"['front_left_wheel', 'front_right_wheel', 'rear_left_wheel', 'rear_right_wheel']",362.0169594185342,237.22592368261658,362.0169594185342,237.22592368261658,1.029678982434888,2.5439127801332524,1.029678982434888,2.5439127801332524,0.0,0.0,0.0,0.0
1737149288.0223384,8111,1737149365,343399104,,"['front_left_wheel', 'front_right_wheel', 'rear_left_wheel', 'rear_right_wheel']",362.0956995760145,237.41368867353123,362.0956995760145,237.41368867353123,1.029678982434888,2.5439127801332524,1.029678982434888,2.5439127801332524,0.0,0.0,0.0,0.0
1737149288.106838,8112,1737149365,442386099,,"['front_left_wheel', 'front_right_wheel', 'rear_left_wheel', 'rear_right_wheel']",362.2168382798304,237.72259236826164,362.2168382798304,237.72259236826164,0.9691096305269534,2.6044821320411873,0.9691096305269534,2.6044821320411873,0.0,0.0,0.0,0.0
1737149288.2058063,8113,1737149365,541410001,,"['front_left_wheel', 'front_right_wheel', 'rear_left_wheel', 'rear_right_wheel']",362.2955784373107,237.93458509993945,362.2955784373107,237.93458509993945,0.9691096305269534,2.6044821320411873,0.9691096305269534,2.6044821320411873,0.0,0.0,0.0,0.0
1737149288.3045807,8114,1737149365,640260557,,"['front_left_wheel', 'front_right_wheel', 'rear_left_wheel', 'rear_right_wheel']",362.404603270745,238.24348879466993,362.404603270745,238.24348879466993,0.9085402786190188,2.6650514839491217,0.9085402786190188,2.6650514839491217,0.0,0.0,0.0,0.0
1737149288.4038868,8115,1737149365,739327410,,"['front_left_wheel', 'front_right_wheel', 'rear_left_wheel', 'rear_right_wheel']",362.5015142337977,238.5099939430648,362.5015142337977,238.5099939430648,0.9085402786190188,2.6650514839491217,0.9085402786190188,2.6650514839491217,0.0,0.0,0.0,0.0
1737149288.503278,8116,1737149365,838557742,,"['front_left_wheel', 'front_right_wheel', 'rear_left_wheel', 'rear_right_wheel']",362.580254391278,238.77044215626893,362.580254391278,238.77044215626893,0.8479709267110843,2.7256208358570566,0.8479709267110843,2.7256208358570566,0.0,0.0,0.0,0.0
1737149288.6007693,8117,1737149365,936749949,,"['front_left_wheel', 'front_right_wheel', 'rear_left_wheel', 'rear_right_wheel']",362.65899454875836,239.02483343428227,362.65899454875836,239.02483343428227,0.7874015748031497,2.786190187764991,0.7874015748031497,2.786190187764991,0.0,0.0,0.0,0.0
1737149288.699478,8118,1737149366,35953171,,"['front_left_wheel', 'front_right_wheel', 'rear_left_wheel', 'rear_right_wheel']",362.7437916414295,239.33979406420352,362.7437916414295,239.33979406420352,0.7874015748031497,2.786190187764991,0.7874015748031497,2.786190187764991,0.0,0.0,0.0,0.0
1737149288.7990289,8119,1737149366,135500875,,"['front_left_wheel', 'front_right_wheel', 'rear_left_wheel', 'rear_right_wheel']",362.8104179285282,239.55178679588127,362.8104179285282,239.55178679588127,0.726832222895215,2.8467595396729255,0.726832222895215,2.8467595396729255,0.0,0.0,0.0,0.0
1737149288.9088748,8120,1737149366,244836673,,"['front_left_wheel', 'front_right_wheel', 'rear_left_wheel', 'rear_right_wheel']",362.8891580860085,239.87886129618414,362.8891580860085,239.87886129618414,0.726832222895215,2.8467595396729255,0.726832222895215,2.8467595396729255,0.0,0.0,0.0,0.0
1737149289.0078697,8121,1737149366,344542674,,"['front_left_wheel', 'front_right_wheel', 'rear_left_wheel', 'rear_right_wheel']",362.9739551786796,240.20593579648698,362.9739551786796,240.20593579648698,0.6662628709872804,2.90732889158086,0.6662628709872804,2.90732889158086,0.0,0.0,0.0,0.0
1737149289.1071155,8122,1737149366,443274952,,"['front_left_wheel', 'front_right_wheel', 'rear_left_wheel', 'rear_right_wheel']",363.02241066020594,240.43004239854633,363.02241066020594,240.43004239854633,0.6662628709872804,2.90732889158086,0.6662628709872804,2.90732889158086,0.0,0.0,0.0,0.0
1737149289.2056603,8123,1737149366,542289411,,"['front_left_wheel', 'front_right_wheel', 'rear_left_wheel', 'rear_right_wheel']",363.09509388249546,240.76317383403997,363.09509388249546,240.76317383403997,0.6056935190793459,2.967898243488795,0.6056935190793459,2.967898243488795,0.0,0.0,0.0,0.0
1737149289.3045797,8124,1737149366,640960623,,"['front_left_wheel', 'front_right_wheel', 'rear_left_wheel', 'rear_right_wheel']",363.1435493640218,240.98728043609933,363.1435493640218,240.98728043609933,0.6056935190793459,2.967898243488795,0.6056935190793459,2.967898243488795,0.0,0.0,0.0,0.0
1737149289.403315,8125,1737149366,739904005,,"['front_left_wheel', 'front_right_wheel', 'rear_left_wheel', 'rear_right_wheel']",363.2041187159298,241.33858267716536,363.2041187159298,241.33858267716536,0.5451241671714112,3.0284675953967293,0.5451241671714112,3.0284675953967293,0.0,0.0,0.0,0.0
1737149289.5025153,8126,1737149366,838835719,,"['front_left_wheel', 'front_right_wheel', 'rear_left_wheel', 'rear_right_wheel']",363.2707450030285,241.6777710478498,363.2707450030285,241.6777710478498,0.5451241671714112,3.0284675953967293,0.5451241671714112,3.0284675953967293,0.0,0.0,0.0,0.0
1737149289.6013937,8127,1737149366,937830842,,"['front_left_wheel', 'front_right_wheel', 'rear_left_wheel', 'rear_right_wheel']",363.313143549364,241.94427619624472,363.313143549364,241.94427619624472,0.4845548152634767,3.089036947304664,0.4845548152634767,3.089036947304664,0.0,0.0,0.0,0.0
1737149289.7002442,8128,1737149367,36840991,,"['front_left_wheel', 'front_right_wheel', 'rear_left_wheel', 'rear_right_wheel']",363.3615990308904,242.25923682616596,363.3615990308904,242.25923682616596,0.4845548152634767,3.089036947304664,0.4845548152634767,3.089036947304664,0.0,0.0,0.0,0.0
1737149289.7995644,8129,1737149367,136259663,,"['front_left_wheel', 'front_right_wheel', 'rear_left_wheel', 'rear_right_wheel']",363.40399757722594,242.55602665051484,363.40399757722594,242.55602665051484,0.42398546335554216,3.1496062992125986,0.42398546335554216,3.1496062992125986,0.0,0.0,0.0,0.0
1737149289.8989289,8130,1737149367,235337660,,"['front_left_wheel', 'front_right_wheel', 'rear_left_wheel', 'rear_right_wheel']",363.4463961235615,242.85887341005449,363.4463961235615,242.85887341005449,0.3634161114476075,3.210175651120533,0.3634161114476075,3.210175651120533,0.0,0.0,0.0,0.0
1737149290.0087037,8131,1737149367,345053689,,"['front_left_wheel', 'front_right_wheel', 'rear_left_wheel', 'rear_right_wheel']",363.4827377347063,243.22228952150212,363.4827377347063,243.22228952150212,0.3634161114476075,3.210175651120533,0.3634161114476075,3.210175651120533,0.0,0.0,0.0,0.0
1737149290.1078262,8132,1737149367,444160942,,"['front_left_wheel', 'front_right_wheel', 'rear_left_wheel', 'rear_right_wheel']",363.5130224106602,243.59176256814052,363.5130224106602,243.59176256814052,0.30284675953967294,3.270745003028468,0.30284675953967294,3.270745003028468,0.0,0.0,0.0,0.0
1737149290.20676,8133,1737149367,543373516,,"['front_left_wheel', 'front_right_wheel', 'rear_left_wheel', 'rear_right_wheel']",363.549364021805,243.8885523924894,363.549364021805,243.8885523924894,0.30284675953967294,3.270745003028468,0.30284675953967294,3.270745003028468,0.0,0.0,0.0,0.0
1737149290.3062675,8134,1737149367,642784544,,"['front_left_wheel', 'front_right_wheel', 'rear_left_wheel', 'rear_right_wheel']",363.57964869775896,244.21562689279224,363.57964869775896,244.21562689279224,0.24227740763173836,3.3313143549364024,0.24227740763173836,3.3313143549364024,0.0,0.0,0.0,0.0
1737149290.4055226,8135,1737149367,741443134,,"['front_left_wheel', 'front_right_wheel', 'rear_left_wheel', 'rear_right_wheel']",363.6038764385221,244.54270139309511,363.6038764385221,244.54270139309511,0.24227740763173836,3.3313143549364024,0.24227740763173836,3.3313143549364024,0.0,0.0,0.0,0.0
1737149290.504958,8136,1737149367,840046606,,"['front_left_wheel', 'front_right_wheel', 'rear_left_wheel', 'rear_right_wheel']",363.62204724409446,244.85160508782556,363.62204724409446,244.85160508782556,0.18170805572380375,3.3918837068443373,0.18170805572380375,3.3918837068443373,0.0,0.0,0.0,0.0
1737149290.6023874,8137,1737149367,938846635,,"['front_left_wheel', 'front_right_wheel', 'rear_left_wheel', 'rear_right_wheel']",363.6402180496669,245.23924894003633,363.6402180496669,245.23924894003633,0.18170805572380375,3.3918837068443373,0.18170805572380375,3.3918837068443373,0.0,0.0,0.0,0.0
1737149290.701404,8138,1737149368,37913968,,"['front_left_wheel', 'front_right_wheel', 'rear_left_wheel', 'rear_right_wheel']",363.65838885523925,245.49364021804968,363.65838885523925,245.49364021804968,0.12113870381586918,3.3918837068443373,0.12113870381586918,3.3918837068443373,0.0,0.0,0.0,0.0
1737149290.800267,8139,1737149368,136802690,,"['front_left_wheel', 'front_right_wheel', 'rear_left_wheel', 'rear_right_wheel']",363.67050272562085,245.89339794064205,363.67050272562085,245.89339794064205,0.12113870381586918,3.3918837068443373,0.12113870381586918,3.3918837068443373,0.0,0.0,0.0,0.0
1737149290.90001,8140,1737149368,235984339,,"['front_left_wheel', 'front_right_wheel', 'rear_left_wheel', 'rear_right_wheel']",363.6765596608116,246.17201695941856,363.6765596608116,246.17201695941856,0.06056935190793459,3.4524530587522713,0.06056935190793459,3.4524530587522713,0.0,0.0,0.0,0.0
1737149290.9990098,8141,1737149368,335503604,,"['front_left_wheel', 'front_right_wheel', 'rear_left_wheel', 'rear_right_wheel']",363.6826165960024,246.5838885523925,363.6826165960024,246.5838885523925,0.06056935190793459,3.4524530587522713,0.06056935190793459,3.4524530587522713,0.0,0.0,0.0,0.0
1737149291.1089125,8142,1737149368,445265937,,"['front_left_wheel', 'front_right_wheel', 'rear_left_wheel', 'rear_right_wheel']",363.694730466384,246.9533615990309,363.694730466384,246.9533615990309,0.0,3.5735917625681406,0.0,3.5735917625681406,0.0,0.0,0.0,0.0
1737149291.2081857,8143,1737149368,544441326,,"['front_left_wheel', 'front_right_wheel', 'rear_left_wheel', 'rear_right_wheel']",363.7007874015748,247.35917625681404,363.7007874015748,247.35917625681404,0.0,3.5735917625681406,0.0,3.5735917625681406,0.0,0.0,0.0,0.0
1737149291.3069077,8144,1737149368,643386300,,"['front_left_wheel', 'front_right_wheel', 'rear_left_wheel', 'rear_right_wheel']",363.70684433676564,247.63173834039978,363.70684433676564,247.63173834039978,0.0,3.634161114476075,0.0,3.634161114476075,0.0,0.0,0.0,0.0
1737149291.4056234,8145,1737149368,742040081,,"['front_left_wheel', 'front_right_wheel', 'rear_left_wheel', 'rear_right_wheel']",363.70684433676564,248.0557238037553,363.70684433676564,248.0557238037553,-0.06056935190793459,3.6947304663840095,-0.06056935190793459,3.6947304663840095,0.0,0.0,0.0,0.0
1737149291.5050771,8146,1737149368,841132300,,"['front_left_wheel', 'front_right_wheel', 'rear_left_wheel', 'rear_right_wheel']",363.7007874015748,248.3525136281042,363.7007874015748,248.3525136281042,-0.06056935190793459,3.6947304663840095,-0.06056935190793459,3.6947304663840095,0.0,0.0,0.0,0.0
1737149291.6039958,8147,1737149368,940321842,,"['front_left_wheel', 'front_right_wheel', 'rear_left_wheel', 'rear_right_wheel']",363.6886735311932,248.78861296184132,363.6886735311932,248.78861296184132,-0.12113870381586918,3.7552998182919444,-0.12113870381586918,3.7552998182919444,0.0,0.0,0.0,0.0
1737149291.7025788,8148,1737149369,39032894,,"['front_left_wheel', 'front_right_wheel', 'rear_left_wheel', 'rear_right_wheel']",363.6826165960024,249.1823137492429,363.6826165960024,249.1823137492429,-0.12113870381586918,3.7552998182919444,-0.12113870381586918,3.7552998182919444,0.0,0.0,0.0,0.0
1737149291.8023307,8149,1737149369,138660326,,"['front_left_wheel', 'front_right_wheel', 'rear_left_wheel', 'rear_right_wheel']",363.66444579043,249.5336159903089,363.66444579043,249.5336159903089,-0.18170805572380375,3.815869170199879,-0.18170805572380375,3.815869170199879,0.0,0.0,0.0,0.0
1737149291.9007761,8150,1737149369,237361813,,"['front_left_wheel', 'front_right_wheel', 'rear_left_wheel', 'rear_right_wheel']",363.64627498485765,249.90914597213808,363.64627498485765,249.90914597213808,-0.18170805572380375,3.815869170199879,-0.18170805572380375,3.815869170199879,0.0,0.0,0.0,0.0
1737149291.9994311,8151,1737149369,335795070,,"['front_left_wheel', 'front_right_wheel', 'rear_left_wheel', 'rear_right_wheel']",363.6281041792853,250.2907328891581,363.6281041792853,250.2907328891581,-0.24227740763173836,3.8764385221078137,-0.24227740763173836,3.8764385221078137,0.0,0.0,0.0,0.0
1737149292.1041887,8152,1737149369,435498604,,"['front_left_wheel', 'front_right_wheel', 'rear_left_wheel', 'rear_right_wheel']",363.6038764385221,250.66626287098728,363.6038764385221,250.66626287098728,-0.24227740763173836,3.8764385221078137,-0.24227740763173836,3.8764385221078137,0.0,0.0,0.0,0.0
1737149292.2088604,8153,1737149369,545508781,,"['front_left_wheel', 'front_right_wheel', 'rear_left_wheel', 'rear_right_wheel']",363.5735917625682,251.08419139915205,363.5735917625682,251.08419139915205,-0.30284675953967294,3.937007874015748,-0.30284675953967294,3.937007874015748,0.0,0.0,0.0,0.0
1737149292.3081384,8154,1737149369,644393249,,"['front_left_wheel', 'front_right_wheel', 'rear_left_wheel', 'rear_right_wheel']",363.54330708661416,251.44760751059965,363.54330708661416,251.44760751059965,-0.30284675953967294,3.937007874015748,-0.30284675953967294,3.937007874015748,0.0,0.0,0.0,0.0
1737149292.4074337,8155,1737149369,743582322,,"['front_left_wheel', 'front_right_wheel', 'rear_left_wheel', 'rear_right_wheel']",363.5130224106602,251.83525136281045,363.5130224106602,251.83525136281045,-0.3634161114476075,3.997577225923683,-0.3634161114476075,3.997577225923683,0.0,0.0,0.0,0.0
1737149292.5057898,8156,1737149369,842024441,,"['front_left_wheel', 'front_right_wheel', 'rear_left_wheel', 'rear_right_wheel']",363.47062386432464,252.28952150211992,363.47062386432464,252.28952150211992,-0.3634161114476075,3.997577225923683,-0.3634161114476075,3.997577225923683,0.0,0.0,0.0,0.0
1737149292.6056902,8157,1737149369,941147751,,"['front_left_wheel', 'front_right_wheel', 'rear_left_wheel', 'rear_right_wheel']",363.4403391883707,252.59236826165963,363.4403391883707,252.59236826165963,-0.42398546335554216,4.058146577831618,-0.42398546335554216,4.058146577831618,0.0,0.0,0.0,0.0
1737149292.7040958,8158,1737149370,39840399,,"['front_left_wheel', 'front_right_wheel', 'rear_left_wheel', 'rear_right_wheel']",363.39188370684434,253.0587522713507,363.39188370684434,253.0587522713507,-0.42398546335554216,4.058146577831618,-0.42398546335554216,4.058146577831618,0.0,0.0,0.0,0.0
1737149292.802499,8159,1737149370,138882513,,"['front_left_wheel', 'front_right_wheel', 'rear_left_wheel', 'rear_right_wheel']",363.3615990308904,253.36765596608117,363.3615990308904,253.36765596608117,-0.4845548152634767,4.118715929739552,-0.4845548152634767,4.118715929739552,0.0,0.0,0.0,0.0
1737149292.902403,8160,1737149370,238797782,,"['front_left_wheel', 'front_right_wheel', 'rear_left_wheel', 'rear_right_wheel']",363.30102967898245,253.84615384615384,363.30102967898245,253.84615384615384,-0.5451241671714112,4.179285281647486,-0.5451241671714112,4.179285281647486,0.0,0.0,0.0,0.0
1737149293.001499,8161,1737149370,337638365,,"['front_left_wheel', 'front_right_wheel', 'rear_left_wheel', 'rear_right_wheel']",363.24046032707446,254.31253785584497,363.24046032707446,254.31253785584497,-0.5451241671714112,4.179285281647486,-0.5451241671714112,4.179285281647486,0.0,0.0,0.0,0.0
1737149293.1003098,8162,1737149370,436613342,,"['front_left_wheel', 'front_right_wheel', 'rear_left_wheel', 'rear_right_wheel']",363.19806178073895,254.633555420957,363.19806178073895,254.633555420957,-0.6056935190793459,4.239854633555421,-0.6056935190793459,4.239854633555421,0.0,0.0,0.0,0.0
1737149293.1982818,8163,1737149370,534659147,,"['front_left_wheel', 'front_right_wheel', 'rear_left_wheel', 'rear_right_wheel']",363.1253785584494,255.11811023622047,363.1253785584494,255.11811023622047,-0.6056935190793459,4.239854633555421,-0.6056935190793459,4.239854633555421,0.0,0.0,0.0,0.0
1737149293.3086832,8164,1737149370,644926265,,"['front_left_wheel', 'front_right_wheel', 'rear_left_wheel', 'rear_right_wheel']",363.0526953361599,255.60266505148397,363.0526953361599,255.60266505148397,-0.6662628709872804,4.300423985463356,-0.6662628709872804,4.300423985463356,0.0,0.0,0.0,0.0
1737149293.4079597,8165,1737149370,744662841,,"['front_left_wheel', 'front_right_wheel', 'rear_left_wheel', 'rear_right_wheel']",363.00423985463357,255.94185342216838,363.00423985463357,255.94185342216838,-0.6662628709872804,4.300423985463356,-0.6662628709872804,4.300423985463356,0.0,0.0,0.0,0.0
1737149293.5075712,8166,1737149370,843177621,,"['front_left_wheel', 'front_right_wheel', 'rear_left_wheel', 'rear_right_wheel']",362.9254996971532,256.44457904300424,362.9254996971532,256.44457904300424,-0.726832222895215,4.36099333737129,-0.726832222895215,4.36099333737129,0.0,0.0,0.0,0.0
1737149293.6646862,8167,1737149370,942698983,,"['front_left_wheel', 'front_right_wheel', 'rear_left_wheel', 'rear_right_wheel']",362.84070260448215,256.91701998788614,362.84070260448215,256.91701998788614,-0.726832222895215,4.36099333737129,-0.726832222895215,4.36099333737129,0.0,0.0,0.0,0.0
1737149293.7166378,8168,1737149371,40947317,,"['front_left_wheel', 'front_right_wheel', 'rear_left_wheel', 'rear_right_wheel']",362.7801332525742,257.3107207752877,362.7801332525742,257.3107207752877,-0.7874015748031497,4.421562689279225,-0.7874015748031497,4.421562689279225,0.0,0.0,0.0,0.0
1737149293.803454,8169,1737149371,140040896,,"['front_left_wheel', 'front_right_wheel', 'rear_left_wheel', 'rear_right_wheel']",362.6953361599031,257.7528770442156,362.6953361599031,257.7528770442156,-0.7874015748031497,4.421562689279225,-0.7874015748031497,4.421562689279225,0.0,0.0,0.0,0.0
1737149293.902597,8170,1737149371,238819926,,"['front_left_wheel', 'front_right_wheel', 'rear_left_wheel', 'rear_right_wheel']",362.62265293761357,258.18291944276194,362.62265293761357,258.18291944276194,-0.8479709267110843,4.4821320411871595,-0.8479709267110843,4.4821320411871595,0.0,0.0,0.0,0.0
1737149294.0010483,8171,1737149371,337726034,,"['front_left_wheel', 'front_right_wheel', 'rear_left_wheel', 'rear_right_wheel']",362.54391278013327,258.60084797092674,362.54391278013327,258.60084797092674,-0.8479709267110843,4.4821320411871595,-0.8479709267110843,4.4821320411871595,0.0,0.0,0.0,0.0
1737149294.1003888,8172,1737149371,436820004,,"['front_left_wheel', 'front_right_wheel', 'rear_left_wheel', 'rear_right_wheel']",362.4409448818898,259.1156874621442,362.4409448818898,259.1156874621442,-0.9085402786190188,4.542701393095094,-0.9085402786190188,4.542701393095094,0.0,0.0,0.0,0.0
1737149294.199142,8173,1737149371,535919034,,"['front_left_wheel', 'front_right_wheel', 'rear_left_wheel', 'rear_right_wheel']",362.3622047244095,259.5154451847365,362.3622047244095,259.5154451847365,-0.9691096305269534,4.603270745003028,-0.9691096305269534,4.603270745003028,0.0,0.0,0.0,0.0
1737149294.298503,8174,1737149371,635264059,,"['front_left_wheel', 'front_right_wheel', 'rear_left_wheel', 'rear_right_wheel']",362.25923682616593,259.9878861296184,362.25923682616593,259.9878861296184,-0.9691096305269534,4.603270745003028,-0.9691096305269534,4.603270745003028,0.0,0.0,0.0,0.0
1737149294.409181,8175,1737149371,745488800,,"['front_left_wheel', 'front_right_wheel', 'rear_left_wheel', 'rear_right_wheel']",362.1441550575409,260.51483949121746,362.1441550575409,260.51483949121746,-1.029678982434888,4.663840096910963,-1.029678982434888,4.663840096910963,0.0,0.0,0.0,0.0
1737149294.5074306,8176,1737149371,844214713,,"['front_left_wheel', 'front_right_wheel', 'rear_left_wheel', 'rear_right_wheel']",362.0472440944882,260.9812235009085,362.0472440944882,260.9812235009085,-1.029678982434888,4.663840096910963,-1.029678982434888,4.663840096910963,0.0,0.0,0.0,0.0
1737149294.6070335,8177,1737149371,943517852,,"['front_left_wheel', 'front_right_wheel', 'rear_left_wheel', 'rear_right_wheel']",361.9442761962447,261.39915202907326,361.9442761962447,261.39915202907326,-1.0902483343428224,4.724409448818898,-1.0902483343428224,4.724409448818898,0.0,0.0,0.0,0.0
1737149294.705234,8178,1737149372,41959540,,"['front_left_wheel', 'front_right_wheel', 'rear_left_wheel', 'rear_right_wheel']",361.8352513628104,261.9382192610539,361.8352513628104,261.9382192610539,-1.0902483343428224,4.724409448818898,-1.0902483343428224,4.724409448818898,0.0,0.0,0.0,0.0
1737149294.8047385,8179,1737149372,140704797,,"['front_left_wheel', 'front_right_wheel', 'rear_left_wheel', 'rear_right_wheel']",361.7383403997577,262.3016353725015,361.7383403997577,262.3016353725015,-1.150817686250757,4.784978800726832,-1.150817686250757,4.784978800726832,0.0,0.0,0.0,0.0
1737149294.9036841,8180,1737149372,239951008,,"['front_left_wheel', 'front_right_wheel', 'rear_left_wheel', 'rear_right_wheel']",361.6050878255603,262.8588734100545,361.6050878255603,262.8588734100545,-1.150817686250757,4.784978800726832,-1.150817686250757,4.784978800726832,0.0,0.0,0.0,0.0
1737149295.0028157,8181,1737149372,339159856,,"['front_left_wheel', 'front_right_wheel', 'rear_left_wheel', 'rear_right_wheel']",361.51423379769835,263.24651726226534,361.51423379769835,263.24651726226534,-1.2113870381586918,4.845548152634767,-1.2113870381586918,4.845548152634767,0.0,0.0,0.0,0.0
1737149295.101438,8182,1737149372,437935859,,"['front_left_wheel', 'front_right_wheel', 'rear_left_wheel', 'rear_right_wheel']",361.3809812235009,263.76135675348274,361.3809812235009,263.76135675348274,-1.2113870381586918,4.845548152634767,-1.2113870381586918,4.845548152634767,0.0,0.0,0.0,0.0
1737149295.2018905,8183,1737149372,537665896,,"['front_left_wheel', 'front_right_wheel', 'rear_left_wheel', 'rear_right_wheel']",361.25378558449427,264.31859479103576,361.25378558449427,264.31859479103576,-1.2719563900666262,4.906117504542702,-1.2719563900666262,4.906117504542702,0.0,0.0,0.0,0.0
1737149295.299422,8184,1737149372,635905749,,"['front_left_wheel', 'front_right_wheel', 'rear_left_wheel', 'rear_right_wheel']",361.14476075105995,264.68806783767417,361.14476075105995,264.68806783767417,-1.2719563900666262,4.906117504542702,-1.2719563900666262,4.906117504542702,0.0,0.0,0.0,0.0
1737149295.398866,8185,1737149372,735744194,,"['front_left_wheel', 'front_right_wheel', 'rear_left_wheel', 'rear_right_wheel']",360.9933373712901,265.25741974560873,360.9933373712901,265.25741974560873,-1.3325257419745609,4.966686856450636,-1.3325257419745609,4.966686856450636,0.0,0.0,0.0,0.0
1737149295.5086071,8186,1737149372,845316292,,"['front_left_wheel', 'front_right_wheel', 'rear_left_wheel', 'rear_right_wheel']",360.8419139915203,265.8207147183525,360.8419139915203,265.8207147183525,-1.3325257419745609,4.966686856450636,-1.3325257419745609,4.966686856450636,0.0,0.0,0.0,0.0
1737149295.6083481,8187,1737149372,944660892,,"['front_left_wheel', 'front_right_wheel', 'rear_left_wheel', 'rear_right_wheel']",360.7268322228952,266.25075711689885,360.7268322228952,266.25075711689885,-1.3930950938824955,5.027256208358571,-1.3930950938824955,5.027256208358571,0.0,0.0,0.0,0.0
1737149295.7068443,8188,1737149373,43377477,,"['front_left_wheel', 'front_right_wheel', 'rear_left_wheel', 'rear_right_wheel']",360.5754088431254,266.7716535433071,360.5754088431254,266.7716535433071,-1.45366444579043,5.087825560266505,-1.45366444579043,5.087825560266505,0.0,0.0,0.0,0.0
1737149295.8062606,8189,1737149373,142245610,,"['front_left_wheel', 'front_right_wheel', 'rear_left_wheel', 'rear_right_wheel']",360.44215626892793,267.35311932162324,360.44215626892793,267.35311932162324,-1.45366444579043,5.087825560266505,-1.45366444579043,5.087825560266505,0.0,0.0,0.0,0.0
1737149295.9051185,8190,1737149373,241290417,,"['front_left_wheel', 'front_right_wheel', 'rear_left_wheel', 'rear_right_wheel']",360.2967898243489,267.74076317383407,360.2967898243489,267.74076317383407,-1.5142337976983646,5.14839491217444,-1.5142337976983646,5.14839491217444,0.0,0.0,0.0,0.0
1737149296.003592,8191,1737149373,340344887,,"['front_left_wheel', 'front_right_wheel', 'rear_left_wheel', 'rear_right_wheel']",360.1271956390067,268.328285887341,360.1271956390067,268.328285887341,-1.5142337976983646,5.14839491217444,-1.5142337976983646,5.14839491217444,0.0,0.0,0.0,0.0
1737149296.1021287,8192,1737149373,438786264,,"['front_left_wheel', 'front_right_wheel', 'rear_left_wheel', 'rear_right_wheel']",360.00605693519077,268.75227135069656,360.00605693519077,268.75227135069656,-1.5748031496062993,5.208964264082375,-1.5748031496062993,5.208964264082375,0.0,0.0,0.0,0.0
1737149296.201139,8193,1737149373,537755114,,"['front_left_wheel', 'front_right_wheel', 'rear_left_wheel', 'rear_right_wheel']",359.8304058146578,269.31556632344035,359.8304058146578,269.31556632344035,-1.5748031496062993,5.208964264082375,-1.5748031496062993,5.208964264082375,0.0,0.0,0.0,0.0
1737149296.3004966,8194,1737149373,637403595,,"['front_left_wheel', 'front_right_wheel', 'rear_left_wheel', 'rear_right_wheel']",359.6910963052695,269.9091459721381,359.6910963052695,269.9091459721381,-1.635372501514234,5.269533615990309,-1.635372501514234,5.269533615990309,0.0,0.0,0.0,0.0
1737149296.3996353,8195,1737149373,736416089,,"['front_left_wheel', 'front_right_wheel', 'rear_left_wheel', 'rear_right_wheel']",359.5275590551181,270.3089036947305,359.5275590551181,270.3089036947305,-1.635372501514234,5.269533615990309,-1.635372501514234,5.269533615990309,0.0,0.0,0.0,0.0
1737149296.498721,8196,1737149373,835599280,,"['front_left_wheel', 'front_right_wheel', 'rear_left_wheel', 'rear_right_wheel']",359.3337371290127,270.9145972138098,359.3337371290127,270.9145972138098,-1.6959418534221686,5.3301029678982434,-1.6959418534221686,5.3301029678982434,0.0,0.0,0.0,0.0
1737149296.608754,8197,1737149373,945323715,,"['front_left_wheel', 'front_right_wheel', 'rear_left_wheel', 'rear_right_wheel']",359.14597213809816,271.5202907328892,359.14597213809816,271.5202907328892,-1.6959418534221686,5.3301029678982434,-1.6959418534221686,5.3301029678982434,0.0,0.0,0.0,0.0
1737149296.7078688,8198,1737149374,44528384,,"['front_left_wheel', 'front_right_wheel', 'rear_left_wheel', 'rear_right_wheel']",359.0127195639007,271.9261053906723,359.0127195639007,271.9261053906723,-1.6959418534221686,5.390672319806178,-1.6959418534221686,5.390672319806178,0.0,0.0,0.0,0.0
1737149296.8061757,8199,1737149374,143086949,,"['front_left_wheel', 'front_right_wheel', 'rear_left_wheel', 'rear_right_wheel']",358.8128407026045,272.54391278013327,358.8128407026045,272.54391278013327,-1.6959418534221686,5.390672319806178,-1.6959418534221686,5.390672319806178,0.0,0.0,0.0,0.0
1737149296.9056382,8200,1737149374,242102354,,"['front_left_wheel', 'front_right_wheel', 'rear_left_wheel', 'rear_right_wheel']",358.67958812840703,272.98001211387043,358.67958812840703,272.98001211387043,-1.8170805572380375,5.451241671714113,-1.8170805572380375,5.451241671714113,0.0,0.0,0.0,0.0
1737149297.0047824,8201,1737149374,341054756,,"['front_left_wheel', 'front_right_wheel', 'rear_left_wheel', 'rear_right_wheel']",358.4615384615385,273.6159903089037,358.4615384615385,273.6159903089037,-1.8776499091459722,5.511811023622047,-1.8776499091459722,5.511811023622047,0.0,0.0,0.0,0.0
1737149297.1044147,8202,1737149374,440357547,,"['front_left_wheel', 'front_right_wheel', 'rear_left_wheel', 'rear_right_wheel']",358.2556026650515,274.2035130224107,358.2556026650515,274.2035130224107,-1.8776499091459722,5.511811023622047,-1.8776499091459722,5.511811023622047,0.0,0.0,0.0,0.0
1737149297.2024517,8203,1737149374,538828150,,"['front_left_wheel', 'front_right_wheel', 'rear_left_wheel', 'rear_right_wheel']",358.1102362204725,274.6214415505754,358.1102362204725,274.6214415505754,-1.9382192610539069,5.572380375529982,-1.9382192610539069,5.572380375529982,0.0,0.0,0.0,0.0
1737149297.3022895,8204,1737149374,638685390,,"['front_left_wheel', 'front_right_wheel', 'rear_left_wheel', 'rear_right_wheel']",357.8921865536039,275.25741974560873,357.8921865536039,275.25741974560873,-1.9382192610539069,5.572380375529982,-1.9382192610539069,5.572380375529982,0.0,0.0,0.0,0.0
1737149297.4001384,8205,1737149374,736713412,,"['front_left_wheel', 'front_right_wheel', 'rear_left_wheel', 'rear_right_wheel']",357.74076317383407,275.69957601453666,357.74076317383407,275.69957601453666,-1.9987886129618415,5.632949727437917,-1.9987886129618415,5.632949727437917,0.0,0.0,0.0,0.0
1737149297.4994848,8206,1737149374,836415008,,"['front_left_wheel', 'front_right_wheel', 'rear_left_wheel', 'rear_right_wheel']",357.5105996365839,276.3597819503332,357.5105996365839,276.3597819503332,-1.9987886129618415,5.632949727437917,-1.9987886129618415,5.632949727437917,0.0,0.0,0.0,0.0
1737149297.5996113,8207,1737149374,935539349,,"['front_left_wheel', 'front_right_wheel', 'rear_left_wheel', 'rear_right_wheel']",357.28649303452454,276.9715324046033,357.28649303452454,276.9715324046033,-2.059357964869776,5.693519079345851,-2.059357964869776,5.693519079345851,0.0,0.0,0.0,0.0
1737149297.7083218,8208,1737149375,44902455,,"['front_left_wheel', 'front_right_wheel', 'rear_left_wheel', 'rear_right_wheel']",357.10478497880075,277.6196244700182,357.10478497880075,277.6196244700182,-2.059357964869776,5.693519079345851,-2.059357964869776,5.693519079345851,0.0,0.0,0.0,0.0
1737149297.8086371,8209,1737149375,144233956,,"['front_left_wheel', 'front_right_wheel', 'rear_left_wheel', 'rear_right_wheel']",356.862507571169,278.1586917019988,356.862507571169,278.1586917019988,-2.1199273167777104,5.754088431253785,-2.1199273167777104,5.754088431253785,0.0,0.0,0.0,0.0
1737149297.9063377,8210,1737149375,243394079,,"['front_left_wheel', 'front_right_wheel', 'rear_left_wheel', 'rear_right_wheel']",356.6505148394912,278.69170199878863,356.6505148394912,278.69170199878863,-2.1199273167777104,5.754088431253785,-2.1199273167777104,5.754088431253785,0.0,0.0,0.0,0.0
1737149298.0058656,8211,1737149375,342079251,,"['front_left_wheel', 'front_right_wheel', 'rear_left_wheel', 'rear_right_wheel']",356.43852210781347,279.2852816474864,356.43852210781347,279.2852816474864,-2.180496668685645,5.81465778316172,-2.180496668685645,5.81465778316172,0.0,0.0,0.0,0.0
1737149298.1049523,8212,1737149375,441110578,,"['front_left_wheel', 'front_right_wheel', 'rear_left_wheel', 'rear_right_wheel']",356.2325863113265,279.8304058146578,356.2325863113265,279.8304058146578,-2.180496668685645,5.81465778316172,-2.180496668685645,5.81465778316172,0.0,0.0,0.0,0.0
1737149298.2047937,8213,1737149375,540425690,,"['front_left_wheel', 'front_right_wheel', 'rear_left_wheel', 'rear_right_wheel']",355.99030890369477,280.4603270745003,355.99030890369477,280.4603270745003,-2.2410660205935797,5.875227135069655,-2.2410660205935797,5.875227135069655,0.0,0.0,0.0,0.0
1737149298.304062,8214,1737149375,639892890,,"['front_left_wheel', 'front_right_wheel', 'rear_left_wheel', 'rear_right_wheel']",355.79043004239855,281.0054512416717,355.79043004239855,281.0054512416717,-2.2410660205935797,5.875227135069655,-2.2410660205935797,5.875227135069655,0.0,0.0,0.0,0.0
1737149298.401372,8215,1737149375,737962231,,"['front_left_wheel', 'front_right_wheel', 'rear_left_wheel', 'rear_right_wheel']",355.56026650514843,281.5748031496063,355.56026650514843,281.5748031496063,-2.301635372501514,5.93579648697759,-2.301635372501514,5.93579648697759,0.0,0.0,0.0,0.0
1737149298.5011399,8216,1737149375,837688740,,"['front_left_wheel', 'front_right_wheel', 'rear_left_wheel', 'rear_right_wheel']",355.336159903089,282.18049666868563,355.336159903089,282.18049666868563,-2.362204724409449,5.996365838885524,-2.362204724409449,5.996365838885524,0.0,0.0,0.0,0.0
1737149298.6001432,8217,1737149375,936219793,,"['front_left_wheel', 'front_right_wheel', 'rear_left_wheel', 'rear_right_wheel']",355.1120533010297,282.7074500302847,355.1120533010297,282.7074500302847,-2.362204724409449,5.996365838885524,-2.362204724409449,5.996365838885524,0.0,0.0,0.0,0.0
1737149298.6991117,8218,1737149376,35633535,,"['front_left_wheel', 'front_right_wheel', 'rear_left_wheel', 'rear_right_wheel']",354.839491217444,283.39188370684434,354.839491217444,283.39188370684434,-2.4227740763173835,6.0569351907934585,-2.4227740763173835,6.0569351907934585,0.0,0.0,0.0,0.0
1737149298.808425,8219,1737149376,145194704,,"['front_left_wheel', 'front_right_wheel', 'rear_left_wheel', 'rear_right_wheel']",354.6577831617202,284.0823743185948,354.6577831617202,284.0823743185948,-2.4227740763173835,6.0569351907934585,-2.4227740763173835,6.0569351907934585,0.0,0.0,0.0,0.0
1737149298.9077773,8220,1737149376,244449469,,"['front_left_wheel', 'front_right_wheel', 'rear_left_wheel', 'rear_right_wheel']",354.3791641429437,284.572986069049,354.3791641429437,284.572986069049,-2.4227740763173835,6.0569351907934585,-2.4227740763173835,6.0569351907934585,0.0,0.0,0.0,0.0
1737149299.007216,8221,1737149376,343263291,,"['front_left_wheel', 'front_right_wheel', 'rear_left_wheel', 'rear_right_wheel']",354.1005451241672,285.23319200484553,354.1005451241672,285.23319200484553,-2.483343428225318,6.0569351907934585,-2.483343428225318,6.0569351907934585,0.0,0.0,0.0,0.0
1737149299.1058955,8222,1737149376,442577636,,"['front_left_wheel', 'front_right_wheel', 'rear_left_wheel', 'rear_right_wheel']",353.8582677165354,285.8509993943065,353.8582677165354,285.8509993943065,-2.483343428225318,6.0569351907934585,-2.483343428225318,6.0569351907934585,0.0,0.0,0.0,0.0
1737149299.2041006,8223,1737149376,541125963,,"['front_left_wheel', 'front_right_wheel', 'rear_left_wheel', 'rear_right_wheel']",353.6281041792853,286.3840096910963,353.6281041792853,286.3840096910963,-2.483343428225318,6.0569351907934585,-2.483343428225318,6.0569351907934585,0.0,0.0,0.0,0.0
1737149299.3044128,8224,1737149376,640530306,,"['front_left_wheel', 'front_right_wheel', 'rear_left_wheel', 'rear_right_wheel']",353.44033918837073,287.0745003028468,353.44033918837073,287.0745003028468,-2.483343428225318,6.0569351907934585,-2.483343428225318,6.0569351907934585,0.0,0.0,0.0,0.0
1737149299.4024236,8225,1737149376,739024435,,"['front_left_wheel', 'front_right_wheel', 'rear_left_wheel', 'rear_right_wheel']",353.1556632344034,287.55299818291945,353.1556632344034,287.55299818291945,-2.5439127801332524,6.0569351907934585,-2.5439127801332524,6.0569351907934585,0.0,0.0,0.0,0.0
1737149299.500748,8226,1737149376,837790364,,"['front_left_wheel', 'front_right_wheel', 'rear_left_wheel', 'rear_right_wheel']",352.8709872804361,288.2253179890975,352.8709872804361,288.2253179890975,-2.5439127801332524,6.0569351907934585,-2.5439127801332524,6.0569351907934585,0.0,0.0,0.0,0.0
1737149299.6006129,8227,1737149376,937697701,,"['front_left_wheel', 'front_right_wheel', 'rear_left_wheel', 'rear_right_wheel']",352.6589945487583,288.75227135069656,352.6589945487583,288.75227135069656,-2.5439127801332524,6.0569351907934585,-2.5439127801332524,6.0569351907934585,0.0,0.0,0.0,0.0
1737149299.6996207,8228,1737149377,36360860,,"['front_left_wheel', 'front_right_wheel', 'rear_left_wheel', 'rear_right_wheel']",352.38037552998185,289.3761356753483,352.38037552998185,289.3761356753483,-2.6044821320411873,6.0569351907934585,-2.6044821320411873,6.0569351907934585,0.0,0.0,0.0,0.0
1737149299.7987545,8229,1737149377,135710615,,"['front_left_wheel', 'front_right_wheel', 'rear_left_wheel', 'rear_right_wheel']",352.1441550575409,290.06662628709876,352.1441550575409,290.06662628709876,-2.6044821320411873,6.0569351907934585,-2.6044821320411873,6.0569351907934585,0.0,0.0,0.0,0.0
1737149299.9077775,8230,1737149377,244892293,,"['front_left_wheel', 'front_right_wheel', 'rear_left_wheel', 'rear_right_wheel']",351.8413082980012,290.6602059357965,351.8413082980012,290.6602059357965,-2.6044821320411873,6.0569351907934585,-2.6044821320411873,6.0569351907934585,0.0,0.0,0.0,0.0
1737149300.0079198,8231,1737149377,344523111,,"['front_left_wheel', 'front_right_wheel', 'rear_left_wheel', 'rear_right_wheel']",351.5929739551787,291.2174439733495,351.5929739551787,291.2174439733495,-2.6044821320411873,6.0569351907934585,-2.6044821320411873,6.0569351907934585,0.0,0.0,0.0,0.0
1737149300.1083636,8232,1737149377,442924263,,"['front_left_wheel', 'front_right_wheel', 'rear_left_wheel', 'rear_right_wheel']",351.290127195639,291.90793458509995,351.290127195639,291.90793458509995,-2.6650514839491217,6.0569351907934585,-2.6650514839491217,6.0569351907934585,0.0,0.0,0.0,0.0
1737149300.2056873,8233,1737149377,542140561,,"['front_left_wheel', 'front_right_wheel', 'rear_left_wheel', 'rear_right_wheel']",351.0599636583889,292.4530587522714,351.0599636583889,292.4530587522714,-2.6650514839491217,6.0569351907934585,-2.6650514839491217,6.0569351907934585,0.0,0.0,0.0,0.0
1737149300.3047404,8234,1737149377,640855703,,"['front_left_wheel', 'front_right_wheel', 'rear_left_wheel', 'rear_right_wheel']",350.78134463961237,293.0587522713507,350.78134463961237,293.0587522713507,-2.6650514839491217,6.0569351907934585,-2.6650514839491217,6.0569351907934585,0.0,0.0,0.0,0.0
1737149300.404261,8235,1737149377,740678803,,"['front_left_wheel', 'front_right_wheel', 'rear_left_wheel', 'rear_right_wheel']",350.5330102967898,293.74924288310115,350.5330102967898,293.74924288310115,-2.7256208358570566,6.0569351907934585,-2.7256208358570566,6.0569351907934585,0.0,0.0,0.0,0.0
1737149300.5034385,8236,1737149377,839600115,,"['front_left_wheel', 'front_right_wheel', 'rear_left_wheel', 'rear_right_wheel']",350.2665051483949,294.20956995760145,350.2665051483949,294.20956995760145,-2.7256208358570566,6.0569351907934585,-2.7256208358570566,6.0569351907934585,0.0,0.0,0.0,0.0
1737149300.6017199,8237,1737149377,938541192,,"['front_left_wheel', 'front_right_wheel', 'rear_left_wheel', 'rear_right_wheel']",349.95760145366444,294.9000605693519,349.95760145366444,294.9000605693519,-2.7256208358570566,6.0569351907934585,-2.7256208358570566,6.0569351907934585,0.0,0.0,0.0,0.0
1737149300.701873,8238,1737149378,37567053,,"['front_left_wheel', 'front_right_wheel', 'rear_left_wheel', 'rear_right_wheel']",349.75166565717745,295.3603876438522,349.75166565717745,295.3603876438522,-2.7256208358570566,6.0569351907934585,-2.7256208358570566,6.0569351907934585,0.0,0.0,0.0,0.0
1737149300.8000917,8239,1737149378,136580666,,"['front_left_wheel', 'front_right_wheel', 'rear_left_wheel', 'rear_right_wheel']",349.4367050272562,296.05693519079347,349.4367050272562,296.05693519079347,-2.786190187764991,6.0569351907934585,-2.786190187764991,6.0569351907934585,0.0,0.0,0.0,0.0
1737149300.898899,8240,1737149378,235519801,,"['front_left_wheel', 'front_right_wheel', 'rear_left_wheel', 'rear_right_wheel']",349.2247122955784,296.7413688673531,349.2247122955784,296.7413688673531,-2.786190187764991,6.0569351907934585,-2.786190187764991,6.0569351907934585,0.0,0.0,0.0,0.0
1737149301.008884,8241,1737149378,345746355,,"['front_left_wheel', 'front_right_wheel', 'rear_left_wheel', 'rear_right_wheel']",348.8976377952756,297.2501514233798,348.8976377952756,297.2501514233798,-2.786190187764991,6.0569351907934585,-2.786190187764991,6.0569351907934585,0.0,0.0,0.0,0.0
1737149301.1084042,8242,1737149378,444135185,,"['front_left_wheel', 'front_right_wheel', 'rear_left_wheel', 'rear_right_wheel']",348.58873410054514,297.8921865536039,348.58873410054514,297.8921865536039,-2.786190187764991,6.0569351907934585,-2.786190187764991,6.0569351907934585,0.0,0.0,0.0,0.0
1737149301.2107472,8243,1737149378,543355092,,"['front_left_wheel', 'front_right_wheel', 'rear_left_wheel', 'rear_right_wheel']",348.26771653543307,298.5826771653543,348.26771653543307,298.5826771653543,-2.8467595396729255,6.0569351907934585,-2.8467595396729255,6.0569351907934585,0.0,0.0,0.0,0.0
1737149301.3050725,8244,1737149378,642117392,,"['front_left_wheel', 'front_right_wheel', 'rear_left_wheel', 'rear_right_wheel']",348.0557238037553,299.04906117504544,348.0557238037553,299.04906117504544,-2.8467595396729255,6.0569351907934585,-2.8467595396729255,6.0569351907934585,0.0,0.0,0.0,0.0
1737149301.4048958,8245,1737149378,741396047,,"['front_left_wheel', 'front_right_wheel', 'rear_left_wheel', 'rear_right_wheel']",347.7286493034524,299.7577225923683,347.7286493034524,299.7577225923683,-2.8467595396729255,6.0569351907934585,-2.8467595396729255,6.0569351907934585,0.0,0.0,0.0,0.0
1737149301.5036893,8246,1737149378,840009322,,"['front_left_wheel', 'front_right_wheel', 'rear_left_wheel', 'rear_right_wheel']",347.4984857662023,300.24833434282255,347.4984857662023,300.24833434282255,-2.8467595396729255,6.0569351907934585,-2.8467595396729255,6.0569351907934585,0.0,0.0,0.0,0.0
1737149301.6023054,8247,1737149378,939261161,,"['front_left_wheel', 'front_right_wheel', 'rear_left_wheel', 'rear_right_wheel']",347.1653543307087,300.9569957601454,347.1653543307087,300.9569957601454,-2.90732889158086,6.0569351907934585,-2.90732889158086,6.0569351907934585,0.0,0.0,0.0,0.0
1737149301.7010837,8248,1737149379,38095944,,"['front_left_wheel', 'front_right_wheel', 'rear_left_wheel', 'rear_right_wheel']",346.8564506359782,301.58086008479705,346.8564506359782,301.58086008479705,-2.90732889158086,6.0569351907934585,-2.90732889158086,6.0569351907934585,0.0,0.0,0.0,0.0
1737149301.8008628,8249,1737149379,137689173,,"['front_left_wheel', 'front_right_wheel', 'rear_left_wheel', 'rear_right_wheel']",346.5899454875833,302.1562689279225,346.5899454875833,302.1562689279225,-2.90732889158086,6.0569351907934585,-2.90732889158086,6.0569351907934585,0.0,0.0,0.0,0.0
