Time,header.seq,header.stamp.secs,header.stamp.nsecs,header.frame_id,name,position_0,position_1,position_2,position_3,velocity_0,velocity_1,velocity_2,velocity_3,effort_0,effort_1,effort_2,effort_3
1737148937.1088789,4599,1737149013,936547404,,"['front_left_wheel', 'front_right_wheel', 'rear_left_wheel', 'rear_right_wheel']",325.2089642640824,52.380375529981826,325.2089642640824,52.380375529981826,0.0,0.0,0.0,0.0,0.0,0.0,0.0,0.0
1737148937.109238,4600,1737149014,36147935,,"['front_left_wheel', 'front_right_wheel', 'rear_left_wheel', 'rear_right_wheel']",325.2089642640824,52.380375529981826,325.2089642640824,52.380375529981826,0.0,0.0,0.0,0.0,0.0,0.0,0.0,0.0
1737148937.1095068,4601,1737149014,134318984,,"['front_left_wheel', 'front_right_wheel', 'rear_left_wheel', 'rear_right_wheel']",325.2089642640824,52.380375529981826,325.2089642640824,52.380375529981826,0.0,0.0,0.0,0.0,0.0,0.0,0.0,0.0
1737148937.1100266,4602,1737149014,244153187,,"['front_left_wheel', 'front_right_wheel', 'rear_left_wheel', 'rear_right_wheel']",325.2089642640824,52.380375529981826,325.2089642640824,52.380375529981826,0.0,0.0,0.0,0.0,0.0,0.0,0.0,0.0
1737148937.1103306,4603,1737149014,343145831,,"['front_left_wheel', 'front_right_wheel', 'rear_left_wheel', 'rear_right_wheel']",325.2089642640824,52.380375529981826,325.2089642640824,52.380375529981826,0.0,0.0,0.0,0.0,0.0,0.0,0.0,0.0
1737148937.119729,4604,1737149014,442798108,,"['front_left_wheel', 'front_right_wheel', 'rear_left_wheel', 'rear_right_wheel']",325.2089642640824,52.380375529981826,325.2089642640824,52.380375529981826,0.0,0.0,0.0,0.0,0.0,0.0,0.0,0.0
1737148937.2183433,4605,1737149014,541398877,,"['front_left_wheel', 'front_right_wheel', 'rear_left_wheel', 'rear_right_wheel']",325.2089642640824,52.380375529981826,325.2089642640824,52.380375529981826,0.0,0.0,0.0,0.0,0.0,0.0,0.0,0.0
1737148937.3178067,4606,1737149014,640256563,,"['front_left_wheel', 'front_right_wheel', 'rear_left_wheel', 'rear_right_wheel']",325.2089642640824,52.380375529981826,325.2089642640824,52.380375529981826,0.0,0.0,0.0,0.0,0.0,0.0,0.0,0.0
1737148937.4176888,4607,1737149014,740006311,,"['front_left_wheel', 'front_right_wheel', 'rear_left_wheel', 'rear_right_wheel']",325.2089642640824,52.380375529981826,325.2089642640824,52.380375529981826,0.0,0.0,0.0,0.0,0.0,0.0,0.0,0.0
1737148937.5151303,4608,1737149014,838193161,,"['front_left_wheel', 'front_right_wheel', 'rear_left_wheel', 'rear_right_wheel']",325.2089642640824,52.380375529981826,325.2089642640824,52.380375529981826,0.0,0.0,0.0,0.0,0.0,0.0,0.0,0.0
1737148937.6149611,4609,1737149014,937815166,,"['front_left_wheel', 'front_right_wheel', 'rear_left_wheel', 'rear_right_wheel']",325.2089642640824,52.380375529981826,325.2089642640824,52.380375529981826,0.0,0.0,0.0,0.0,0.0,0.0,0.0,0.0
1737148937.7131114,4610,1737149015,36242161,,"['front_left_wheel', 'front_right_wheel', 'rear_left_wheel', 'rear_right_wheel']",325.2089642640824,52.380375529981826,325.2089642640824,52.380375529981826,0.0,0.0,0.0,0.0,0.0,0.0,0.0,0.0
1737148937.812596,4611,1737149015,135496155,,"['front_left_wheel', 'front_right_wheel', 'rear_left_wheel', 'rear_right_wheel']",325.2089642640824,52.380375529981826,325.2089642640824,52.380375529981826,0.0,0.0,0.0,0.0,0.0,0.0,0.0,0.0
1737148937.9118712,4612,1737149015,234389464,,"['front_left_wheel', 'front_right_wheel', 'rear_left_wheel', 'rear_right_wheel']",325.2089642640824,52.380375529981826,325.2089642640824,52.380375529981826,0.0,0.0,0.0,0.0,0.0,0.0,0.0,0.0
1737148938.0215166,4613,1737149015,344429795,,"['front_left_wheel', 'front_right_wheel', 'rear_left_wheel', 'rear_right_wheel']",325.2089642640824,52.380375529981826,325.2089642640824,52.380375529981826,0.0,0.0,0.0,0.0,0.0,0.0,0.0,0.0
1737148938.1201375,4614,1737149015,443343237,,"['front_left_wheel', 'front_right_wheel', 'rear_left_wheel', 'rear_right_wheel']",325.2089642640824,52.380375529981826,325.2089642640824,52.380375529981826,0.0,0.0,0.0,0.0,0.0,0.0,0.0,0.0
1737148938.219598,4615,1737149015,542600795,,"['front_left_wheel', 'front_right_wheel', 'rear_left_wheel', 'rear_right_wheel']",325.2089642640824,52.380375529981826,325.2089642640824,52.380375529981826,0.0,0.0,0.0,0.0,0.0,0.0,0.0,0.0
1737148938.3184326,4616,1737149015,641696414,,"['front_left_wheel', 'front_right_wheel', 'rear_left_wheel', 'rear_right_wheel']",325.2089642640824,52.380375529981826,325.2089642640824,52.380375529981826,0.0,0.0,0.0,0.0,0.0,0.0,0.0,0.0
1737148938.4180572,4617,1737149015,740413298,,"['front_left_wheel', 'front_right_wheel', 'rear_left_wheel', 'rear_right_wheel']",325.2089642640824,52.380375529981826,325.2089642640824,52.380375529981826,0.0,0.0,0.0,0.0,0.0,0.0,0.0,0.0
1737148938.5171874,4618,1737149015,839972072,,"['front_left_wheel', 'front_right_wheel', 'rear_left_wheel', 'rear_right_wheel']",325.2089642640824,52.380375529981826,325.2089642640824,52.380375529981826,0.0,0.0,0.0,0.0,0.0,0.0,0.0,0.0
1737148938.6171854,4619,1737149015,938917238,,"['front_left_wheel', 'front_right_wheel', 'rear_left_wheel', 'rear_right_wheel']",325.2089642640824,52.380375529981826,325.2089642640824,52.380375529981826,0.0,0.0,0.0,0.0,0.0,0.0,0.0,0.0
1737148938.7143052,4620,1737149016,37511678,,"['front_left_wheel', 'front_right_wheel', 'rear_left_wheel', 'rear_right_wheel']",325.2089642640824,52.380375529981826,325.2089642640824,52.380375529981826,0.0,0.0,0.0,0.0,0.0,0.0,0.0,0.0
1737148938.8146508,4621,1737149016,137015773,,"['front_left_wheel', 'front_right_wheel', 'rear_left_wheel', 'rear_right_wheel']",325.2089642640824,52.380375529981826,325.2089642640824,52.380375529981826,0.0,0.0,0.0,0.0,0.0,0.0,0.0,0.0
1737148938.9127316,4622,1737149016,235508945,,"['front_left_wheel', 'front_right_wheel', 'rear_left_wheel', 'rear_right_wheel']",325.2089642640824,52.380375529981826,325.2089642640824,52.380375529981826,0.0,0.0,0.0,0.0,0.0,0.0,0.0,0.0
1737148939.012192,4623,1737149016,335143113,,"['front_left_wheel', 'front_right_wheel', 'rear_left_wheel', 'rear_right_wheel']",325.2089642640824,52.380375529981826,325.2089642640824,52.380375529981826,0.0,0.0,0.0,0.0,0.0,0.0,0.0,0.0
1737148939.1211722,4624,1737149016,444271991,,"['front_left_wheel', 'front_right_wheel', 'rear_left_wheel', 'rear_right_wheel']",325.2089642640824,52.380375529981826,325.2089642640824,52.380375529981826,0.0,0.0,0.0,0.0,0.0,0.0,0.0,0.0
1737148939.2208817,4625,1737149016,543797522,,"['front_left_wheel', 'front_right_wheel', 'rear_left_wheel', 'rear_right_wheel']",325.2089642640824,52.380375529981826,325.2089642640824,52.380375529981826,0.0,0.0,0.0,0.0,0.0,0.0,0.0,0.0
1737148939.3199382,4626,1737149016,642762269,,"['front_left_wheel', 'front_right_wheel', 'rear_left_wheel', 'rear_right_wheel']",325.2089642640824,52.380375529981826,325.2089642640824,52.380375529981826,0.0,0.0,0.0,0.0,0.0,0.0,0.0,0.0
1737148939.4184995,4627,1737149016,741242387,,"['front_left_wheel', 'front_right_wheel', 'rear_left_wheel', 'rear_right_wheel']",325.2089642640824,52.380375529981826,325.2089642640824,52.380375529981826,0.0,0.0,0.0,0.0,0.0,0.0,0.0,0.0
1737148939.5178952,4628,1737149016,841134455,,"['front_left_wheel', 'front_right_wheel', 'rear_left_wheel', 'rear_right_wheel']",325.2089642640824,52.380375529981826,325.2089642640824,52.380375529981826,0.0,0.0,0.0,0.0,0.0,0.0,0.0,0.0
1737148939.6170766,4629,1737149016,939143519,,"['front_left_wheel', 'front_right_wheel', 'rear_left_wheel', 'rear_right_wheel']",325.2089642640824,52.380375529981826,325.2089642640824,52.380375529981826,0.0,0.0,0.0,0.0,0.0,0.0,0.0,0.0
1737148939.71496,4630,1737149017,38173780,,"['front_left_wheel', 'front_right_wheel', 'rear_left_wheel', 'rear_right_wheel']",325.2089642640824,52.380375529981826,325.2089642640824,52.380375529981826,0.0,0.0,0.0,0.0,0.0,0.0,0.0,0.0
1737148939.8145792,4631,1737149017,137579217,,"['front_left_wheel', 'front_right_wheel', 'rear_left_wheel', 'rear_right_wheel']",325.2089642640824,52.380375529981826,325.2089642640824,52.380375529981826,0.0,0.0,0.0,0.0,0.0,0.0,0.0,0.0
1737148939.9139183,4632,1737149017,236662619,,"['front_left_wheel', 'front_right_wheel', 'rear_left_wheel', 'rear_right_wheel']",325.2089642640824,52.380375529981826,325.2089642640824,52.380375529981826,0.0,0.0,0.0,0.0,0.0,0.0,0.0,0.0
1737148940.0129626,4633,1737149017,335637639,,"['front_left_wheel', 'front_right_wheel', 'rear_left_wheel', 'rear_right_wheel']",325.2089642640824,52.380375529981826,325.2089642640824,52.380375529981826,0.0,0.0,0.0,0.0,0.0,0.0,0.0,0.0
1737148940.1114836,4634,1737149017,434367825,,"['front_left_wheel', 'front_right_wheel', 'rear_left_wheel', 'rear_right_wheel']",325.2089642640824,52.380375529981826,325.2089642640824,52.380375529981826,0.0,0.0,0.0,0.0,0.0,0.0,0.0,0.0
1737148940.222241,4635,1737149017,545064840,,"['front_left_wheel', 'front_right_wheel', 'rear_left_wheel', 'rear_right_wheel']",325.2089642640824,52.380375529981826,325.2089642640824,52.380375529981826,0.0,0.0,0.0,0.0,0.0,0.0,0.0,0.0
1737148940.3201149,4636,1737149017,643239745,,"['front_left_wheel', 'front_right_wheel', 'rear_left_wheel', 'rear_right_wheel']",325.2089642640824,52.380375529981826,325.2089642640824,52.380375529981826,0.0,0.0,0.0,0.0,0.0,0.0,0.0,0.0
1737148940.4192343,4637,1737149017,742387386,,"['front_left_wheel', 'front_right_wheel', 'rear_left_wheel', 'rear_right_wheel']",325.2089642640824,52.380375529981826,325.2089642640824,52.380375529981826,0.0,0.0,0.0,0.0,0.0,0.0,0.0,0.0
1737148940.518286,4638,1737149017,841204389,,"['front_left_wheel', 'front_right_wheel', 'rear_left_wheel', 'rear_right_wheel']",325.2089642640824,52.380375529981826,325.2089642640824,52.380375529981826,0.0,0.0,0.0,0.0,0.0,0.0,0.0,0.0
1737148940.620501,4639,1737149017,941063944,,"['front_left_wheel', 'front_right_wheel', 'rear_left_wheel', 'rear_right_wheel']",325.2089642640824,52.380375529981826,325.2089642640824,52.380375529981826,0.0,0.0,0.0,0.0,0.0,0.0,0.0,0.0
1737148940.7170198,4640,1737149018,39813016,,"['front_left_wheel', 'front_right_wheel', 'rear_left_wheel', 'rear_right_wheel']",325.2089642640824,52.380375529981826,325.2089642640824,52.380375529981826,0.0,0.0,0.0,0.0,0.0,0.0,0.0,0.0
1737148940.8154986,4641,1737149018,138779162,,"['front_left_wheel', 'front_right_wheel', 'rear_left_wheel', 'rear_right_wheel']",325.2089642640824,52.380375529981826,325.2089642640824,52.380375529981826,0.0,0.0,0.0,0.0,0.0,0.0,0.0,0.0
1737148940.9149983,4642,1737149018,237830858,,"['front_left_wheel', 'front_right_wheel', 'rear_left_wheel', 'rear_right_wheel']",325.2089642640824,52.380375529981826,325.2089642640824,52.380375529981826,0.0,0.0,0.0,0.0,0.0,0.0,0.0,0.0
1737148941.01383,4643,1737149018,336910288,,"['front_left_wheel', 'front_right_wheel', 'rear_left_wheel', 'rear_right_wheel']",325.2089642640824,52.380375529981826,325.2089642640824,52.380375529981826,0.0,0.0,0.0,0.0,0.0,0.0,0.0,0.0
1737148941.1125963,4644,1737149018,435794749,,"['front_left_wheel', 'front_right_wheel', 'rear_left_wheel', 'rear_right_wheel']",325.2089642640824,52.380375529981826,325.2089642640824,52.380375529981826,0.0,0.0,0.0,0.0,0.0,0.0,0.0,0.0
1737148941.2119784,4645,1737149018,534621315,,"['front_left_wheel', 'front_right_wheel', 'rear_left_wheel', 'rear_right_wheel']",325.2089642640824,52.380375529981826,325.2089642640824,52.380375529981826,0.0,0.0,0.0,0.0,0.0,0.0,0.0,0.0
1737148941.321237,4646,1737149018,644456976,,"['front_left_wheel', 'front_right_wheel', 'rear_left_wheel', 'rear_right_wheel']",325.2089642640824,52.380375529981826,325.2089642640824,52.380375529981826,0.0,0.0,0.0,0.0,0.0,0.0,0.0,0.0
1737148941.4202225,4647,1737149018,743397084,,"['front_left_wheel', 'front_right_wheel', 'rear_left_wheel', 'rear_right_wheel']",325.2089642640824,52.380375529981826,325.2089642640824,52.380375529981826,0.0,0.0,0.0,0.0,0.0,0.0,0.0,0.0
1737148941.5190332,4648,1737149018,842279226,,"['front_left_wheel', 'front_right_wheel', 'rear_left_wheel', 'rear_right_wheel']",325.2089642640824,52.380375529981826,325.2089642640824,52.380375529981826,0.0,0.0,0.0,0.0,0.0,0.0,0.0,0.0
1737148941.6191695,4649,1737149018,942067639,,"['front_left_wheel', 'front_right_wheel', 'rear_left_wheel', 'rear_right_wheel']",325.2089642640824,52.380375529981826,325.2089642640824,52.380375529981826,0.0,0.0,0.0,0.0,0.0,0.0,0.0,0.0
1737148941.7178435,4650,1737149019,40974273,,"['front_left_wheel', 'front_right_wheel', 'rear_left_wheel', 'rear_right_wheel']",325.2089642640824,52.380375529981826,325.2089642640824,52.380375529981826,0.0,0.0,0.0,0.0,0.0,0.0,0.0,0.0
1737148941.8174052,4651,1737149019,139143024,,"['front_left_wheel', 'front_right_wheel', 'rear_left_wheel', 'rear_right_wheel']",325.2089642640824,52.380375529981826,325.2089642640824,52.380375529981826,0.0,0.0,0.0,0.0,0.0,0.0,0.0,0.0
1737148941.9151752,4652,1737149019,238429256,,"['front_left_wheel', 'front_right_wheel', 'rear_left_wheel', 'rear_right_wheel']",325.2089642640824,52.380375529981826,325.2089642640824,52.380375529981826,0.0,0.0,0.0,0.0,0.0,0.0,0.0,0.0
1737148942.014795,4653,1737149019,338071619,,"['front_left_wheel', 'front_right_wheel', 'rear_left_wheel', 'rear_right_wheel']",325.2089642640824,52.380375529981826,325.2089642640824,52.380375529981826,0.0,0.0,0.0,0.0,0.0,0.0,0.0,0.0
1737148942.113667,4654,1737149019,436563132,,"['front_left_wheel', 'front_right_wheel', 'rear_left_wheel', 'rear_right_wheel']",325.2089642640824,52.380375529981826,325.2089642640824,52.380375529981826,0.0,0.0,0.0,0.0,0.0,0.0,0.0,0.0
1737148942.212864,4655,1737149019,535455067,,"['front_left_wheel', 'front_right_wheel', 'rear_left_wheel', 'rear_right_wheel']",325.2089642640824,52.380375529981826,325.2089642640824,52.380375529981826,0.0,0.0,0.0,0.0,0.0,0.0,0.0,0.0
1737148942.3110642,4656,1737149019,634264087,,"['front_left_wheel', 'front_right_wheel', 'rear_left_wheel', 'rear_right_wheel']",325.2089642640824,52.380375529981826,325.2089642640824,52.380375529981826,0.0,0.0,0.0,0.0,0.0,0.0,0.0,0.0
1737148942.4214325,4657,1737149019,744698408,,"['front_left_wheel', 'front_right_wheel', 'rear_left_wheel', 'rear_right_wheel']",325.2089642640824,52.380375529981826,325.2089642640824,52.380375529981826,0.0,0.0,0.0,0.0,0.0,0.0,0.0,0.0
1737148942.520002,4658,1737149019,843297901,,"['front_left_wheel', 'front_right_wheel', 'rear_left_wheel', 'rear_right_wheel']",325.2089642640824,52.380375529981826,325.2089642640824,52.380375529981826,0.0,0.0,0.0,0.0,0.0,0.0,0.0,0.0
1737148942.6193092,4659,1737149019,942584441,,"['front_left_wheel', 'front_right_wheel', 'rear_left_wheel', 'rear_right_wheel']",325.2089642640824,52.380375529981826,325.2089642640824,52.380375529981826,0.0,0.0,0.0,0.0,0.0,0.0,0.0,0.0
1737148942.719544,4660,1737149020,42206566,,"['front_left_wheel', 'front_right_wheel', 'rear_left_wheel', 'rear_right_wheel']",325.2089642640824,52.380375529981826,325.2089642640824,52.380375529981826,0.0,0.0,0.0,0.0,0.0,0.0,0.0,0.0
1737148942.8178144,4661,1737149020,140214758,,"['front_left_wheel', 'front_right_wheel', 'rear_left_wheel', 'rear_right_wheel']",325.2089642640824,52.380375529981826,325.2089642640824,52.380375529981826,0.0,0.0,0.0,0.0,0.0,0.0,0.0,0.0
1737148942.9167144,4662,1737149020,240017970,,"['front_left_wheel', 'front_right_wheel', 'rear_left_wheel', 'rear_right_wheel']",325.2089642640824,52.380375529981826,325.2089642640824,52.380375529981826,0.0,0.0,0.0,0.0,0.0,0.0,0.0,0.0
1737148943.017585,4663,1737149020,339079142,,"['front_left_wheel', 'front_right_wheel', 'rear_left_wheel', 'rear_right_wheel']",325.2089642640824,52.380375529981826,325.2089642640824,52.380375529981826,0.0,0.0,0.0,0.0,0.0,0.0,0.0,0.0
1737148943.114682,4664,1737149020,437847381,,"['front_left_wheel', 'front_right_wheel', 'rear_left_wheel', 'rear_right_wheel']",325.2089642640824,52.380375529981826,325.2089642640824,52.380375529981826,0.0,0.0,0.0,0.0,0.0,0.0,0.0,0.0
1737148943.2139196,4665,1737149020,536983144,,"['front_left_wheel', 'front_right_wheel', 'rear_left_wheel', 'rear_right_wheel']",325.2089642640824,52.380375529981826,325.2089642640824,52.380375529981826,0.0,0.0,0.0,0.0,0.0,0.0,0.0,0.0
1737148943.3122988,4666,1737149020,635463713,,"['front_left_wheel', 'front_right_wheel', 'rear_left_wheel', 'rear_right_wheel']",325.2089642640824,52.380375529981826,325.2089642640824,52.380375529981826,0.0,0.0,0.0,0.0,0.0,0.0,0.0,0.0
1737148943.411329,4667,1737149020,734558983,,"['front_left_wheel', 'front_right_wheel', 'rear_left_wheel', 'rear_right_wheel']",325.2089642640824,52.380375529981826,325.2089642640824,52.380375529981826,0.0,0.0,0.0,0.0,0.0,0.0,0.0,0.0
1737148943.5215454,4668,1737149020,844616470,,"['front_left_wheel', 'front_right_wheel', 'rear_left_wheel', 'rear_right_wheel']",325.2089642640824,52.380375529981826,325.2089642640824,52.380375529981826,0.0,0.0,0.0,0.0,0.0,0.0,0.0,0.0
1737148943.6196659,4669,1737149020,943208235,,"['front_left_wheel', 'front_right_wheel', 'rear_left_wheel', 'rear_right_wheel']",325.23924894003636,52.41671714112659,325.23924894003636,52.41671714112659,0.4845548152634767,0.6662628709872804,0.4845548152634767,0.6662628709872804,0.0,0.0,0.0,0.0
1737148943.719801,4670,1737149021,43065799,,"['front_left_wheel', 'front_right_wheel', 'rear_left_wheel', 'rear_right_wheel']",325.27559055118115,52.46517262265294,325.27559055118115,52.46517262265294,0.4845548152634767,0.6662628709872804,0.4845548152634767,0.6662628709872804,0.0,0.0,0.0,0.0
1737148943.8186412,4671,1737149021,141942268,,"['front_left_wheel', 'front_right_wheel', 'rear_left_wheel', 'rear_right_wheel']",325.33010296789826,52.543912780133255,325.33010296789826,52.543912780133255,0.42398546335554216,0.726832222895215,0.42398546335554216,0.726832222895215,0.0,0.0,0.0,0.0
1737148943.917903,4672,1737149021,241022995,,"['front_left_wheel', 'front_right_wheel', 'rear_left_wheel', 'rear_right_wheel']",325.3603876438522,52.60448213204119,325.3603876438522,52.60448213204119,0.42398546335554216,0.726832222895215,0.42398546335554216,0.726832222895215,0.0,0.0,0.0,0.0
1737148944.0174038,4673,1737149021,340005084,,"['front_left_wheel', 'front_right_wheel', 'rear_left_wheel', 'rear_right_wheel']",325.40884312537855,52.695336159903086,325.40884312537855,52.695336159903086,0.3634161114476075,0.7874015748031497,0.3634161114476075,0.7874015748031497,0.0,0.0,0.0,0.0
1737148944.1152072,4674,1737149021,438622520,,"['front_left_wheel', 'front_right_wheel', 'rear_left_wheel', 'rear_right_wheel']",325.44518473652334,52.7740763173834,325.44518473652334,52.7740763173834,0.3634161114476075,0.7874015748031497,0.3634161114476075,0.7874015748031497,0.0,0.0,0.0,0.0
1737148944.2148829,4675,1737149021,538031499,,"['front_left_wheel', 'front_right_wheel', 'rear_left_wheel', 'rear_right_wheel']",325.47546941247725,52.83464566929134,325.47546941247725,52.83464566929134,0.30284675953967294,0.8479709267110843,0.30284675953967294,0.8479709267110843,0.0,0.0,0.0,0.0
1737148944.313565,4676,1737149021,636439453,,"['front_left_wheel', 'front_right_wheel', 'rear_left_wheel', 'rear_right_wheel']",325.5057540884313,52.93155663234404,325.5057540884313,52.93155663234404,0.30284675953967294,0.8479709267110843,0.30284675953967294,0.8479709267110843,0.0,0.0,0.0,0.0
1737148944.4124753,4677,1737149021,735853714,,"['front_left_wheel', 'front_right_wheel', 'rear_left_wheel', 'rear_right_wheel']",325.5299818291944,53.00423985463355,325.5299818291944,53.00423985463355,0.24227740763173836,0.9085402786190188,0.24227740763173836,0.9085402786190188,0.0,0.0,0.0,0.0
1737148944.511351,4678,1737149021,834761422,,"['front_left_wheel', 'front_right_wheel', 'rear_left_wheel', 'rear_right_wheel']",325.5602665051484,53.10720775287705,325.5602665051484,53.10720775287705,0.24227740763173836,0.9085402786190188,0.24227740763173836,0.9085402786190188,0.0,0.0,0.0,0.0
1737148944.6213057,4679,1737149021,944497951,,"['front_left_wheel', 'front_right_wheel', 'rear_left_wheel', 'rear_right_wheel']",325.58449424591157,53.21623258631133,325.58449424591157,53.21623258631133,0.18170805572380375,0.9691096305269534,0.18170805572380375,0.9691096305269534,0.0,0.0,0.0,0.0
1737148944.7206526,4680,1737149022,44098577,,"['front_left_wheel', 'front_right_wheel', 'rear_left_wheel', 'rear_right_wheel']",325.59660811629317,53.31920048455482,325.59660811629317,53.31920048455482,0.18170805572380375,0.9691096305269534,0.18170805572380375,0.9691096305269534,0.0,0.0,0.0,0.0
1737148944.8188791,4681,1737149022,142191364,,"['front_left_wheel', 'front_right_wheel', 'rear_left_wheel', 'rear_right_wheel']",325.61477892186554,53.39188370684433,325.61477892186554,53.39188370684433,0.12113870381586918,1.029678982434888,0.12113870381586918,1.029678982434888,0.0,0.0,0.0,0.0
1737148944.9178545,4682,1737149022,241408989,,"['front_left_wheel', 'front_right_wheel', 'rear_left_wheel', 'rear_right_wheel']",325.62689279224713,53.51302241066021,325.62689279224713,53.51302241066021,0.06056935190793459,1.0902483343428224,0.06056935190793459,1.0902483343428224,0.0,0.0,0.0,0.0
1737148945.0178854,4683,1737149022,341007969,,"['front_left_wheel', 'front_right_wheel', 'rear_left_wheel', 'rear_right_wheel']",325.6329497274379,53.597819503331316,325.6329497274379,53.597819503331316,0.06056935190793459,1.0902483343428224,0.06056935190793459,1.0902483343428224,0.0,0.0,0.0,0.0
1737148945.1170342,4684,1737149022,440071805,,"['front_left_wheel', 'front_right_wheel', 'rear_left_wheel', 'rear_right_wheel']",325.63900666262873,53.73107207752877,325.63900666262873,53.73107207752877,0.0,1.150817686250757,0.0,1.150817686250757,0.0,0.0,0.0,0.0
1737148945.2154315,4685,1737149022,538733356,,"['front_left_wheel', 'front_right_wheel', 'rear_left_wheel', 'rear_right_wheel']",325.6511205330103,53.85221078134464,325.6511205330103,53.85221078134464,0.0,1.150817686250757,0.0,1.150817686250757,0.0,0.0,0.0,0.0
1737148945.3145652,4686,1737149022,637771241,,"['front_left_wheel', 'front_right_wheel', 'rear_left_wheel', 'rear_right_wheel']",325.6632344033919,53.96123561477893,325.6632344033919,53.96123561477893,0.0,1.2113870381586918,0.0,1.2113870381586918,0.0,0.0,0.0,0.0
1737148945.4239793,4687,1737149022,736722092,,"['front_left_wheel', 'front_right_wheel', 'rear_left_wheel', 'rear_right_wheel']",325.67534827377347,54.082374318594795,325.67534827377347,54.082374318594795,0.0,1.2113870381586918,0.0,1.2113870381586918,0.0,0.0,0.0,0.0
1737148945.5129097,4688,1737149022,836096537,,"['front_left_wheel', 'front_right_wheel', 'rear_left_wheel', 'rear_right_wheel']",325.67534827377347,54.20351302241066,325.67534827377347,54.20351302241066,-0.06056935190793459,1.2719563900666262,-0.06056935190793459,1.2719563900666262,0.0,0.0,0.0,0.0
1737148945.6109817,4689,1737149022,934492631,,"['front_left_wheel', 'front_right_wheel', 'rear_left_wheel', 'rear_right_wheel']",325.6692913385827,54.318594791035736,325.6692913385827,54.318594791035736,-0.06056935190793459,1.2719563900666262,-0.06056935190793459,1.2719563900666262,0.0,0.0,0.0,0.0
1737148945.7210217,4690,1737149023,44405226,,"['front_left_wheel', 'front_right_wheel', 'rear_left_wheel', 'rear_right_wheel']",325.6632344033919,54.470018170805574,325.6632344033919,54.470018170805574,-0.12113870381586918,1.3325257419745609,-0.12113870381586918,1.3325257419745609,0.0,0.0,0.0,0.0
1737148945.820216,4691,1737149023,143515720,,"['front_left_wheel', 'front_right_wheel', 'rear_left_wheel', 'rear_right_wheel']",325.6511205330103,54.57298606904906,325.6511205330103,54.57298606904906,-0.12113870381586918,1.3325257419745609,-0.12113870381586918,1.3325257419745609,0.0,0.0,0.0,0.0
1737148945.9190555,4692,1737149023,242134543,,"['front_left_wheel', 'front_right_wheel', 'rear_left_wheel', 'rear_right_wheel']",325.63900666262873,54.724409448818896,325.63900666262873,54.724409448818896,-0.18170805572380375,1.3930950938824955,-0.18170805572380375,1.3930950938824955,0.0,0.0,0.0,0.0
1737148946.0188015,4693,1737149023,342114281,,"['front_left_wheel', 'front_right_wheel', 'rear_left_wheel', 'rear_right_wheel']",325.61477892186554,54.881889763779526,325.61477892186554,54.881889763779526,-0.18170805572380375,1.3930950938824955,-0.18170805572380375,1.3930950938824955,0.0,0.0,0.0,0.0
1737148946.1181796,4694,1737149023,440859232,,"['front_left_wheel', 'front_right_wheel', 'rear_left_wheel', 'rear_right_wheel']",325.60266505148394,54.98485766202301,325.60266505148394,54.98485766202301,-0.24227740763173836,1.45366444579043,-0.24227740763173836,1.45366444579043,0.0,0.0,0.0,0.0
1737148946.2164252,4695,1737149023,539229538,,"['front_left_wheel', 'front_right_wheel', 'rear_left_wheel', 'rear_right_wheel']",325.5784373107208,55.148394912174446,325.5784373107208,55.148394912174446,-0.24227740763173836,1.45366444579043,-0.24227740763173836,1.45366444579043,0.0,0.0,0.0,0.0
1737148946.315361,4696,1737149023,638688823,,"['front_left_wheel', 'front_right_wheel', 'rear_left_wheel', 'rear_right_wheel']",325.5602665051484,55.26347668079952,325.5602665051484,55.26347668079952,-0.30284675953967294,1.5142337976983646,-0.30284675953967294,1.5142337976983646,0.0,0.0,0.0,0.0
1737148946.414647,4697,1737149023,737829148,,"['front_left_wheel', 'front_right_wheel', 'rear_left_wheel', 'rear_right_wheel']",325.5178679588129,55.43912780133253,325.5178679588129,55.43912780133253,-0.3634161114476075,1.5748031496062993,-0.3634161114476075,1.5748031496062993,0.0,0.0,0.0,0.0
1737148946.513153,4698,1737149023,836378413,,"['front_left_wheel', 'front_right_wheel', 'rear_left_wheel', 'rear_right_wheel']",325.47546941247725,55.614778921865536,325.47546941247725,55.614778921865536,-0.3634161114476075,1.5748031496062993,-0.3634161114476075,1.5748031496062993,0.0,0.0,0.0,0.0
1737148946.6121922,4699,1737149023,935673384,,"['front_left_wheel', 'front_right_wheel', 'rear_left_wheel', 'rear_right_wheel']",325.44518473652334,55.754088431253784,325.44518473652334,55.754088431253784,-0.42398546335554216,1.635372501514234,-0.42398546335554216,1.635372501514234,0.0,0.0,0.0,0.0
1737148946.7111847,4700,1737149024,34489578,,"['front_left_wheel', 'front_right_wheel', 'rear_left_wheel', 'rear_right_wheel']",325.39672925499696,55.923682616596004,325.39672925499696,55.923682616596004,-0.42398546335554216,1.635372501514234,-0.42398546335554216,1.635372501514234,0.0,0.0,0.0,0.0
1737148946.8214042,4701,1737149024,144711744,,"['front_left_wheel', 'front_right_wheel', 'rear_left_wheel', 'rear_right_wheel']",325.3482737734706,56.1175045427014,325.3482737734706,56.1175045427014,-0.4845548152634767,1.6959418534221686,-0.4845548152634767,1.6959418534221686,0.0,0.0,0.0,0.0
1737148946.9211366,4702,1737149024,244123219,,"['front_left_wheel', 'front_right_wheel', 'rear_left_wheel', 'rear_right_wheel']",325.2998182919443,56.28709872804361,325.2998182919443,56.28709872804361,-0.4845548152634767,1.6959418534221686,-0.4845548152634767,1.6959418534221686,0.0,0.0,0.0,0.0
1737148947.0188687,4703,1737149024,342322299,,"['front_left_wheel', 'front_right_wheel', 'rear_left_wheel', 'rear_right_wheel']",325.2513628104179,56.43852210781345,325.2513628104179,56.43852210781345,-0.5451241671714112,1.6959418534221686,-0.5451241671714112,1.6959418534221686,0.0,0.0,0.0,0.0
1737148947.1182635,4704,1737149024,441960032,,"['front_left_wheel', 'front_right_wheel', 'rear_left_wheel', 'rear_right_wheel']",325.19079345851,56.63840096910964,325.19079345851,56.63840096910964,-0.5451241671714112,1.6959418534221686,-0.5451241671714112,1.6959418534221686,0.0,0.0,0.0,0.0
1737148947.2191455,4705,1737149024,541145049,,"['front_left_wheel', 'front_right_wheel', 'rear_left_wheel', 'rear_right_wheel']",325.14233797698364,56.79588128407027,325.14233797698364,56.79588128407027,-0.6056935190793459,1.8170805572380375,-0.6056935190793459,1.8170805572380375,0.0,0.0,0.0,0.0
1737148947.3165042,4706,1737149024,639783676,,"['front_left_wheel', 'front_right_wheel', 'rear_left_wheel', 'rear_right_wheel']",325.0817686250757,56.98364627498486,325.0817686250757,56.98364627498486,-0.6056935190793459,1.8170805572380375,-0.6056935190793459,1.8170805572380375,0.0,0.0,0.0,0.0
1737148947.4256744,4707,1737149024,738842746,,"['front_left_wheel', 'front_right_wheel', 'rear_left_wheel', 'rear_right_wheel']",325.0211992731678,57.15929739551787,325.0211992731678,57.15929739551787,-0.6662628709872804,1.8776499091459722,-0.6662628709872804,1.8776499091459722,0.0,0.0,0.0,0.0
1737148947.514057,4708,1737149024,837722346,,"['front_left_wheel', 'front_right_wheel', 'rear_left_wheel', 'rear_right_wheel']",324.96062992125985,57.33494851605087,324.96062992125985,57.33494851605087,-0.6662628709872804,1.8776499091459722,-0.6662628709872804,1.8776499091459722,0.0,0.0,0.0,0.0
1737148947.613453,4709,1737149024,936845467,,"['front_left_wheel', 'front_right_wheel', 'rear_left_wheel', 'rear_right_wheel']",324.8818897637795,57.54694124772865,324.8818897637795,57.54694124772865,-0.726832222895215,1.9382192610539069,-0.726832222895215,1.9382192610539069,0.0,0.0,0.0,0.0
1737148947.7122803,4710,1737149025,35526230,,"['front_left_wheel', 'front_right_wheel', 'rear_left_wheel', 'rear_right_wheel']",324.8273773470624,57.698364627498485,324.8273773470624,57.698364627498485,-0.7874015748031497,1.9987886129618415,-0.7874015748031497,1.9987886129618415,0.0,0.0,0.0,0.0
1737148947.8110507,4711,1737149025,134255737,,"['front_left_wheel', 'front_right_wheel', 'rear_left_wheel', 'rear_right_wheel']",324.7365233192005,57.92247122955785,324.7365233192005,57.92247122955785,-0.7874015748031497,1.9987886129618415,-0.7874015748031497,1.9987886129618415,0.0,0.0,0.0,0.0
1737148947.9212005,4712,1737149025,244515570,,"['front_left_wheel', 'front_right_wheel', 'rear_left_wheel', 'rear_right_wheel']",324.6396123561478,58.15869170199879,324.6396123561478,58.15869170199879,-0.8479709267110843,2.059357964869776,-0.8479709267110843,2.059357964869776,0.0,0.0,0.0,0.0
1737148948.0200057,4713,1737149025,343658257,,"['front_left_wheel', 'front_right_wheel', 'rear_left_wheel', 'rear_right_wheel']",324.5729860690491,58.3343428225318,324.5729860690491,58.3343428225318,-0.8479709267110843,2.059357964869776,-0.8479709267110843,2.059357964869776,0.0,0.0,0.0,0.0
1737148948.1186328,4714,1737149025,442508000,,"['front_left_wheel', 'front_right_wheel', 'rear_left_wheel', 'rear_right_wheel']",324.4821320411872,58.54633555420957,324.4821320411872,58.54633555420957,-0.9085402786190188,2.1199273167777104,-0.9085402786190188,2.1199273167777104,0.0,0.0,0.0,0.0
1737148948.2188385,4715,1737149025,542107722,,"['front_left_wheel', 'front_right_wheel', 'rear_left_wheel', 'rear_right_wheel']",324.3731072077529,58.78861296184131,324.3731072077529,58.78861296184131,-0.9085402786190188,2.1199273167777104,-0.9085402786190188,2.1199273167777104,0.0,0.0,0.0,0.0
1737148948.3167458,4716,1737149025,640514120,,"['front_left_wheel', 'front_right_wheel', 'rear_left_wheel', 'rear_right_wheel']",324.30648092065417,58.95215021199274,324.30648092065417,58.95215021199274,-0.9691096305269534,2.180496668685645,-0.9691096305269534,2.180496668685645,0.0,0.0,0.0,0.0
1737148948.416803,4717,1737149025,740193864,,"['front_left_wheel', 'front_right_wheel', 'rear_left_wheel', 'rear_right_wheel']",324.1913991520291,59.20654149000606,324.1913991520291,59.20654149000606,-0.9691096305269534,2.180496668685645,-0.9691096305269534,2.180496668685645,0.0,0.0,0.0,0.0
1737148948.5163133,4718,1737149025,838943107,,"['front_left_wheel', 'front_right_wheel', 'rear_left_wheel', 'rear_right_wheel']",324.1126589945488,59.38219261053907,324.1126589945488,59.38219261053907,-1.029678982434888,2.2410660205935797,-1.029678982434888,2.2410660205935797,0.0,0.0,0.0,0.0
1737148948.614941,4719,1737149025,938111251,,"['front_left_wheel', 'front_right_wheel', 'rear_left_wheel', 'rear_right_wheel']",323.9915202907329,59.648697758933984,323.9915202907329,59.648697758933984,-1.029678982434888,2.2410660205935797,-1.029678982434888,2.2410660205935797,0.0,0.0,0.0,0.0
1737148948.7129786,4720,1737149026,36592941,,"['front_left_wheel', 'front_right_wheel', 'rear_left_wheel', 'rear_right_wheel']",323.8824954572986,59.87886129618413,323.8824954572986,59.87886129618413,-1.0902483343428224,2.301635372501514,-1.0902483343428224,2.301635372501514,0.0,0.0,0.0,0.0
1737148948.8121288,4721,1737149026,135621137,,"['front_left_wheel', 'front_right_wheel', 'rear_left_wheel', 'rear_right_wheel']",323.77952755905517,60.0969109630527,323.77952755905517,60.0969109630527,-1.0902483343428224,2.301635372501514,-1.0902483343428224,2.301635372501514,0.0,0.0,0.0,0.0
1737148948.9225214,4722,1737149026,245734487,,"['front_left_wheel', 'front_right_wheel', 'rear_left_wheel', 'rear_right_wheel']",323.6765596608116,60.32101756511205,323.6765596608116,60.32101756511205,-1.150817686250757,2.362204724409449,-1.150817686250757,2.362204724409449,0.0,0.0,0.0,0.0
1737148949.0211287,4723,1737149026,344681592,,"['front_left_wheel', 'front_right_wheel', 'rear_left_wheel', 'rear_right_wheel']",323.54330708661416,60.58752271350697,323.54330708661416,60.58752271350697,-1.150817686250757,2.362204724409449,-1.150817686250757,2.362204724409449,0.0,0.0,0.0,0.0
1737148949.1202374,4724,1737149026,443467169,,"['front_left_wheel', 'front_right_wheel', 'rear_left_wheel', 'rear_right_wheel']",323.4463961235615,60.79951544518474,323.4463961235615,60.79951544518474,-1.2113870381586918,2.4227740763173835,-1.2113870381586918,2.4227740763173835,0.0,0.0,0.0,0.0
1737148949.218724,4725,1737149026,542152251,,"['front_left_wheel', 'front_right_wheel', 'rear_left_wheel', 'rear_right_wheel']",323.31314354936404,61.04784978800728,323.31314354936404,61.04784978800728,-1.2719563900666262,2.483343428225318,-1.2719563900666262,2.483343428225318,0.0,0.0,0.0,0.0
1737148949.317587,4726,1737149026,641490120,,"['front_left_wheel', 'front_right_wheel', 'rear_left_wheel', 'rear_right_wheel']",323.1920048455482,61.33252574197456,323.1920048455482,61.33252574197456,-1.2719563900666262,2.483343428225318,-1.2719563900666262,2.483343428225318,0.0,0.0,0.0,0.0
1737148949.4173086,4727,1737149026,740305626,,"['front_left_wheel', 'front_right_wheel', 'rear_left_wheel', 'rear_right_wheel']",323.07086614173227,61.52029073288916,323.07086614173227,61.52029073288916,-1.3325257419745609,2.5439127801332524,-1.3325257419745609,2.5439127801332524,0.0,0.0,0.0,0.0
1737148949.5168543,4728,1737149026,839551635,,"['front_left_wheel', 'front_right_wheel', 'rear_left_wheel', 'rear_right_wheel']",322.91944276196244,61.811023622047244,322.91944276196244,61.811023622047244,-1.3325257419745609,2.5439127801332524,-1.3325257419745609,2.5439127801332524,0.0,0.0,0.0,0.0
1737148949.616311,4729,1737149026,938846192,,"['front_left_wheel', 'front_right_wheel', 'rear_left_wheel', 'rear_right_wheel']",322.81647486371895,62.00484554815264,322.81647486371895,62.00484554815264,-1.3930950938824955,2.6044821320411873,-1.3930950938824955,2.6044821320411873,0.0,0.0,0.0,0.0
1737148949.7141275,4730,1737149027,37451910,,"['front_left_wheel', 'front_right_wheel', 'rear_left_wheel', 'rear_right_wheel']",322.65899454875836,62.301635372501515,322.65899454875836,62.301635372501515,-1.3930950938824955,2.6044821320411873,-1.3930950938824955,2.6044821320411873,0.0,0.0,0.0,0.0
1737148949.81307,4731,1737149027,136425842,,"['front_left_wheel', 'front_right_wheel', 'rear_left_wheel', 'rear_right_wheel']",322.49545729860694,62.5984251968504,322.49545729860694,62.5984251968504,-1.45366444579043,2.6650514839491217,-1.45366444579043,2.6650514839491217,0.0,0.0,0.0,0.0
1737148949.9131575,4732,1737149027,236124604,,"['front_left_wheel', 'front_right_wheel', 'rear_left_wheel', 'rear_right_wheel']",322.38037552998185,62.82253179890975,322.38037552998185,62.82253179890975,-1.45366444579043,2.6650514839491217,-1.45366444579043,2.6650514839491217,0.0,0.0,0.0,0.0
1737148950.0116327,4733,1737149027,335127686,,"['front_left_wheel', 'front_right_wheel', 'rear_left_wheel', 'rear_right_wheel']",322.2168382798304,63.107207752877045,322.2168382798304,63.107207752877045,-1.5142337976983646,2.7256208358570566,-1.5142337976983646,2.7256208358570566,0.0,0.0,0.0,0.0
1737148950.1213493,4734,1737149027,444797020,,"['front_left_wheel', 'front_right_wheel', 'rear_left_wheel', 'rear_right_wheel']",322.0472440944882,63.422168382798304,322.0472440944882,63.422168382798304,-1.5142337976983646,2.7256208358570566,-1.5142337976983646,2.7256208358570566,0.0,0.0,0.0,0.0
1737148950.22,4735,1737149027,543609534,,"['front_left_wheel', 'front_right_wheel', 'rear_left_wheel', 'rear_right_wheel']",321.93216232586315,63.62810417928529,321.93216232586315,63.62810417928529,-1.5748031496062993,2.786190187764991,-1.5748031496062993,2.786190187764991,0.0,0.0,0.0,0.0
1737148950.3191936,4736,1737149027,642766942,,"['front_left_wheel', 'front_right_wheel', 'rear_left_wheel', 'rear_right_wheel']",321.75045427013936,63.95517867958812,321.75045427013936,63.95517867958812,-1.5748031496062993,2.786190187764991,-1.5748031496062993,2.786190187764991,0.0,0.0,0.0,0.0
1737148950.4199793,4737,1737149027,742171731,,"['front_left_wheel', 'front_right_wheel', 'rear_left_wheel', 'rear_right_wheel']",321.62325863113267,64.1792852816475,321.62325863113267,64.1792852816475,-1.635372501514234,2.8467595396729255,-1.635372501514234,2.8467595396729255,0.0,0.0,0.0,0.0
1737148950.5174868,4738,1737149027,840785821,,"['front_left_wheel', 'front_right_wheel', 'rear_left_wheel', 'rear_right_wheel']",321.42943670502723,64.51241671714112,321.42943670502723,64.51241671714112,-1.635372501514234,2.8467595396729255,-1.635372501514234,2.8467595396729255,0.0,0.0,0.0,0.0
1737148950.6178339,4739,1737149027,939959779,,"['front_left_wheel', 'front_right_wheel', 'rear_left_wheel', 'rear_right_wheel']",321.25378558449427,64.80920654149,321.25378558449427,64.80920654149,-1.6959418534221686,2.90732889158086,-1.6959418534221686,2.90732889158086,0.0,0.0,0.0,0.0
1737148950.715418,4740,1737149028,38702758,,"['front_left_wheel', 'front_right_wheel', 'rear_left_wheel', 'rear_right_wheel']",321.0963052695336,65.08782556026651,321.0963052695336,65.08782556026651,-1.6959418534221686,2.967898243488795,-1.6959418534221686,2.967898243488795,0.0,0.0,0.0,0.0
1737148950.814702,4741,1737149028,137874389,,"['front_left_wheel', 'front_right_wheel', 'rear_left_wheel', 'rear_right_wheel']",320.9267110841914,65.37250151423379,320.9267110841914,65.37250151423379,-1.6959418534221686,2.967898243488795,-1.6959418534221686,2.967898243488795,0.0,0.0,0.0,0.0
1737148950.9127505,4742,1737149028,236592456,,"['front_left_wheel', 'front_right_wheel', 'rear_left_wheel', 'rear_right_wheel']",320.7450030284676,65.68140520896426,320.7450030284676,65.68140520896426,-1.8170805572380375,3.0284675953967293,-1.8170805572380375,3.0284675953967293,0.0,0.0,0.0,0.0
1737148951.012674,4743,1737149028,335991086,,"['front_left_wheel', 'front_right_wheel', 'rear_left_wheel', 'rear_right_wheel']",320.58146577831616,65.94185342216839,320.58146577831616,65.94185342216839,-1.8170805572380375,3.0284675953967293,-1.8170805572380375,3.0284675953967293,0.0,0.0,0.0,0.0
1737148951.1114383,4744,1737149028,434505447,,"['front_left_wheel', 'front_right_wheel', 'rear_left_wheel', 'rear_right_wheel']",320.3755299818292,66.2931556632344,320.3755299818292,66.2931556632344,-1.8776499091459722,3.089036947304664,-1.8776499091459722,3.089036947304664,0.0,0.0,0.0,0.0
1737148951.2209656,4745,1737149028,544251488,,"['front_left_wheel', 'front_right_wheel', 'rear_left_wheel', 'rear_right_wheel']",320.1574803149606,66.64445790430042,320.1574803149606,66.64445790430042,-1.8776499091459722,3.089036947304664,-1.8776499091459722,3.089036947304664,0.0,0.0,0.0,0.0
1737148951.3208375,4746,1737149028,644061208,,"['front_left_wheel', 'front_right_wheel', 'rear_left_wheel', 'rear_right_wheel']",320.0121138703816,66.88067837674137,320.0121138703816,66.88067837674137,-1.9382192610539069,3.1496062992125986,-1.9382192610539069,3.1496062992125986,0.0,0.0,0.0,0.0
1737148951.4194243,4747,1737149028,743098740,,"['front_left_wheel', 'front_right_wheel', 'rear_left_wheel', 'rear_right_wheel']",319.794064203513,67.2380375529982,319.794064203513,67.2380375529982,-1.9382192610539069,3.1496062992125986,-1.9382192610539069,3.1496062992125986,0.0,0.0,0.0,0.0
1737148951.5189543,4748,1737149028,842250334,,"['front_left_wheel', 'front_right_wheel', 'rear_left_wheel', 'rear_right_wheel']",319.6426408237432,67.48031496062993,319.6426408237432,67.48031496062993,-1.9987886129618415,3.210175651120533,-1.9987886129618415,3.210175651120533,0.0,0.0,0.0,0.0
1737148951.6173472,4749,1737149028,940138906,,"['front_left_wheel', 'front_right_wheel', 'rear_left_wheel', 'rear_right_wheel']",319.41853422168384,67.84373107207753,319.41853422168384,67.84373107207753,-1.9987886129618415,3.210175651120533,-1.9987886129618415,3.210175651120533,0.0,0.0,0.0,0.0
1737148951.7170372,4750,1737149029,39771569,,"['front_left_wheel', 'front_right_wheel', 'rear_left_wheel', 'rear_right_wheel']",319.18837068443366,68.21320411871594,319.18837068443366,68.21320411871594,-2.059357964869776,3.270745003028468,-2.059357964869776,3.270745003028468,0.0,0.0,0.0,0.0
1737148951.8146343,4751,1737149029,138369640,,"['front_left_wheel', 'front_right_wheel', 'rear_left_wheel', 'rear_right_wheel']",319.0187764990915,68.47970926711083,319.0187764990915,68.47970926711083,-2.059357964869776,3.270745003028468,-2.059357964869776,3.270745003028468,0.0,0.0,0.0,0.0
1737148951.9136496,4752,1737149029,237451132,,"['front_left_wheel', 'front_right_wheel', 'rear_left_wheel', 'rear_right_wheel']",318.7886129618413,68.83706844336766,318.7886129618413,68.83706844336766,-2.1199273167777104,3.3313143549364024,-2.1199273167777104,3.3313143549364024,0.0,0.0,0.0,0.0
1737148952.0134876,4753,1737149029,336925475,,"['front_left_wheel', 'front_right_wheel', 'rear_left_wheel', 'rear_right_wheel']",318.6069049061175,69.13385826771653,318.6069049061175,69.13385826771653,-2.180496668685645,3.3918837068443373,-2.180496668685645,3.3918837068443373,0.0,0.0,0.0,0.0
1737148952.1123872,4754,1737149029,435700305,,"['front_left_wheel', 'front_right_wheel', 'rear_left_wheel', 'rear_right_wheel']",318.38279830405816,69.47910357359176,318.38279830405816,69.47910357359176,-2.180496668685645,3.3918837068443373,-2.180496668685645,3.3918837068443373,0.0,0.0,0.0,0.0
1737148952.210537,4755,1737149029,534400669,,"['front_left_wheel', 'front_right_wheel', 'rear_left_wheel', 'rear_right_wheel']",318.12840702604484,69.86674742580254,318.12840702604484,69.86674742580254,-2.2410660205935797,3.3918837068443373,-2.2410660205935797,3.3918837068443373,0.0,0.0,0.0,0.0
1737148952.3216748,4756,1737149029,644184013,,"['front_left_wheel', 'front_right_wheel', 'rear_left_wheel', 'rear_right_wheel']",317.8740157480315,70.26044821320411,317.8740157480315,70.26044821320411,-2.2410660205935797,3.3918837068443373,-2.2410660205935797,3.3918837068443373,0.0,0.0,0.0,0.0
1737148952.4196866,4757,1737149029,743298264,,"['front_left_wheel', 'front_right_wheel', 'rear_left_wheel', 'rear_right_wheel']",317.6862507571169,70.55118110236221,317.6862507571169,70.55118110236221,-2.301635372501514,3.4524530587522713,-2.301635372501514,3.4524530587522713,0.0,0.0,0.0,0.0
1737148952.5186696,4758,1737149029,842214397,,"['front_left_wheel', 'front_right_wheel', 'rear_left_wheel', 'rear_right_wheel']",317.43791641429436,70.92671108419141,317.43791641429436,70.92671108419141,-2.301635372501514,3.4524530587522713,-2.301635372501514,3.4524530587522713,0.0,0.0,0.0,0.0
1737148952.6181064,4759,1737149029,941525120,,"['front_left_wheel', 'front_right_wheel', 'rear_left_wheel', 'rear_right_wheel']",317.2259236826166,71.25378558449424,317.2259236826166,71.25378558449424,-2.362204724409449,3.5735917625681406,-2.362204724409449,3.5735917625681406,0.0,0.0,0.0,0.0
1737148952.7179089,4760,1737149030,40631564,,"['front_left_wheel', 'front_right_wheel', 'rear_left_wheel', 'rear_right_wheel']",316.98970321017566,71.59903089036948,316.98970321017566,71.59903089036948,-2.362204724409449,3.5735917625681406,-2.362204724409449,3.5735917625681406,0.0,0.0,0.0,0.0
1737148952.816142,4761,1737149030,139148100,,"['front_left_wheel', 'front_right_wheel', 'rear_left_wheel', 'rear_right_wheel']",316.7171411265899,72.01090248334343,316.7171411265899,72.01090248334343,-2.4227740763173835,3.634161114476075,-2.4227740763173835,3.634161114476075,0.0,0.0,0.0,0.0
1737148952.91569,4762,1737149030,238641464,,"['front_left_wheel', 'front_right_wheel', 'rear_left_wheel', 'rear_right_wheel']",316.53543307086613,72.28952150211992,316.53543307086613,72.28952150211992,-2.4227740763173835,3.634161114476075,-2.4227740763173835,3.634161114476075,0.0,0.0,0.0,0.0
1737148953.0138965,4763,1737149030,337669901,,"['front_left_wheel', 'front_right_wheel', 'rear_left_wheel', 'rear_right_wheel']",316.2568140520896,72.70745003028468,316.2568140520896,72.70745003028468,-2.483343428225318,3.6947304663840095,-2.483343428225318,3.6947304663840095,0.0,0.0,0.0,0.0
1737148953.1128752,4764,1737149030,436572117,,"['front_left_wheel', 'front_right_wheel', 'rear_left_wheel', 'rear_right_wheel']",316.03876438522104,73.03452453058752,316.03876438522104,73.03452453058752,-2.483343428225318,3.6947304663840095,-2.483343428225318,3.6947304663840095,0.0,0.0,0.0,0.0
1737148953.2122123,4765,1737149030,535778033,,"['front_left_wheel', 'front_right_wheel', 'rear_left_wheel', 'rear_right_wheel']",315.7843731072078,73.4100545124167,315.7843731072078,73.4100545124167,-2.5439127801332524,3.7552998182919444,-2.5439127801332524,3.7552998182919444,0.0,0.0,0.0,0.0
1737148953.3110754,4766,1737149030,634755770,,"['front_left_wheel', 'front_right_wheel', 'rear_left_wheel', 'rear_right_wheel']",315.4936402180497,73.84009691096306,315.4936402180497,73.84009691096306,-2.5439127801332524,3.7552998182919444,-2.5439127801332524,3.7552998182919444,0.0,0.0,0.0,0.0
1737148953.4202797,4767,1737149030,744208386,,"['front_left_wheel', 'front_right_wheel', 'rear_left_wheel', 'rear_right_wheel']",315.2331920048456,74.22168382798304,315.2331920048456,74.22168382798304,-2.6044821320411873,3.815869170199879,-2.6044821320411873,3.815869170199879,0.0,0.0,0.0,0.0
1737148953.519707,4768,1737149030,843130583,,"['front_left_wheel', 'front_right_wheel', 'rear_left_wheel', 'rear_right_wheel']",314.9969715324046,74.56087219866748,314.9969715324046,74.56087219866748,-2.6650514839491217,3.8764385221078137,-2.6650514839491217,3.8764385221078137,0.0,0.0,0.0,0.0
1737148953.6190817,4769,1737149030,942411042,,"['front_left_wheel', 'front_right_wheel', 'rear_left_wheel', 'rear_right_wheel']",314.69412477286494,75.0030284675954,314.69412477286494,75.0030284675954,-2.6650514839491217,3.8764385221078137,-2.6650514839491217,3.8764385221078137,0.0,0.0,0.0,0.0
1737148953.718137,4770,1737149031,42028184,,"['front_left_wheel', 'front_right_wheel', 'rear_left_wheel', 'rear_right_wheel']",314.48818897637796,75.30587522713508,314.48818897637796,75.30587522713508,-2.7256208358570566,3.937007874015748,-2.7256208358570566,3.937007874015748,0.0,0.0,0.0,0.0
1737148953.8175902,4771,1737149031,140939558,,"['front_left_wheel', 'front_right_wheel', 'rear_left_wheel', 'rear_right_wheel']",314.1732283464567,75.76620230163537,314.1732283464567,75.76620230163537,-2.7256208358570566,3.937007874015748,-2.7256208358570566,3.937007874015748,0.0,0.0,0.0,0.0
1737148953.9169338,4772,1737149031,240186121,,"['front_left_wheel', 'front_right_wheel', 'rear_left_wheel', 'rear_right_wheel']",313.94912174439736,76.19624470018171,313.94912174439736,76.19624470018171,-2.786190187764991,3.997577225923683,-2.786190187764991,3.997577225923683,0.0,0.0,0.0,0.0
1737148954.0144155,4773,1737149031,338196038,,"['front_left_wheel', 'front_right_wheel', 'rear_left_wheel', 'rear_right_wheel']",313.6220472440945,76.55360387643852,313.6220472440945,76.55360387643852,-2.786190187764991,3.997577225923683,-2.786190187764991,3.997577225923683,0.0,0.0,0.0,0.0
1737148954.1143472,4774,1737149031,438005444,,"['front_left_wheel', 'front_right_wheel', 'rear_left_wheel', 'rear_right_wheel']",313.3373712901272,76.95941853422168,313.3373712901272,76.95941853422168,-2.8467595396729255,4.058146577831618,-2.8467595396729255,4.058146577831618,0.0,0.0,0.0,0.0
1737148954.2130845,4775,1737149031,536831394,,"['front_left_wheel', 'front_right_wheel', 'rear_left_wheel', 'rear_right_wheel']",313.1193216232586,77.26832222895214,313.1193216232586,77.26832222895214,-2.8467595396729255,4.058146577831618,-2.8467595396729255,4.058146577831618,0.0,0.0,0.0,0.0
1737148954.312123,4776,1737149031,635322778,,"['front_left_wheel', 'front_right_wheel', 'rear_left_wheel', 'rear_right_wheel']",312.786190187765,77.74682010902484,312.786190187765,77.74682010902484,-2.90732889158086,4.118715929739552,-2.90732889158086,4.118715929739552,0.0,0.0,0.0,0.0
1737148954.4108007,4777,1737149031,734333329,,"['front_left_wheel', 'front_right_wheel', 'rear_left_wheel', 'rear_right_wheel']",312.45911568746214,78.20109024833434,312.45911568746214,78.20109024833434,-2.90732889158086,4.118715929739552,-2.90732889158086,4.118715929739552,0.0,0.0,0.0,0.0
1737148954.5205905,4778,1737149031,844511014,,"['front_left_wheel', 'front_right_wheel', 'rear_left_wheel', 'rear_right_wheel']",312.2107813446396,78.56450635978196,312.2107813446396,78.56450635978196,-2.967898243488795,4.179285281647486,-2.967898243488795,4.179285281647486,0.0,0.0,0.0,0.0
1737148954.6200047,4779,1737149031,943456847,,"['front_left_wheel', 'front_right_wheel', 'rear_left_wheel', 'rear_right_wheel']",311.9018776499091,78.99454875832829,311.9018776499091,78.99454875832829,-2.967898243488795,4.179285281647486,-2.967898243488795,4.179285281647486,0.0,0.0,0.0,0.0
1737148954.7194061,4780,1737149032,42976886,,"['front_left_wheel', 'front_right_wheel', 'rear_left_wheel', 'rear_right_wheel']",311.56268927922474,79.46698970321017,311.56268927922474,79.46698970321017,-3.0284675953967293,4.239854633555421,-3.0284675953967293,4.239854633555421,0.0,0.0,0.0,0.0
1737148954.8174994,4781,1737149032,141345570,,"['front_left_wheel', 'front_right_wheel', 'rear_left_wheel', 'rear_right_wheel']",311.32646880678374,79.79406420351302,311.32646880678374,79.79406420351302,-3.089036947304664,4.300423985463356,-3.089036947304664,4.300423985463356,0.0,0.0,0.0,0.0
1737148954.9177475,4782,1737149032,241009924,,"['front_left_wheel', 'front_right_wheel', 'rear_left_wheel', 'rear_right_wheel']",310.97516656571776,80.2846759539673,310.97516656571776,80.2846759539673,-3.089036947304664,4.300423985463356,-3.089036947304664,4.300423985463356,0.0,0.0,0.0,0.0
1737148955.0172281,4783,1737149032,339826455,,"['front_left_wheel', 'front_right_wheel', 'rear_left_wheel', 'rear_right_wheel']",310.7389460932768,80.61175045427014,310.7389460932768,80.61175045427014,-3.1496062992125986,4.36099333737129,-3.1496062992125986,4.36099333737129,0.0,0.0,0.0,0.0
1737148955.116123,4784,1737149032,438793423,,"['front_left_wheel', 'front_right_wheel', 'rear_left_wheel', 'rear_right_wheel']",310.33918837068444,81.16898849182314,310.33918837068444,81.16898849182314,-3.1496062992125986,4.36099333737129,-3.1496062992125986,4.36099333737129,0.0,0.0,0.0,0.0
1737148955.214316,4785,1737149032,537717387,,"['front_left_wheel', 'front_right_wheel', 'rear_left_wheel', 'rear_right_wheel']",310.01817080557237,81.61114476075106,310.01817080557237,81.61114476075106,-3.210175651120533,4.421562689279225,-3.210175651120533,4.421562689279225,0.0,0.0,0.0,0.0
1737148955.3134334,4786,1737149032,636247046,,"['front_left_wheel', 'front_right_wheel', 'rear_left_wheel', 'rear_right_wheel']",309.70926711084195,82.0411871592974,309.70926711084195,82.0411871592974,-3.210175651120533,4.421562689279225,-3.210175651120533,4.421562689279225,0.0,0.0,0.0,0.0
1737148955.4136174,4787,1737149032,735810926,,"['front_left_wheel', 'front_right_wheel', 'rear_left_wheel', 'rear_right_wheel']",309.40642035130224,82.45305875227135,309.40642035130224,82.45305875227135,-3.270745003028468,4.4821320411871595,-3.270745003028468,4.4821320411871595,0.0,0.0,0.0,0.0
1737148955.5117984,4788,1737149032,835069729,,"['front_left_wheel', 'front_right_wheel', 'rear_left_wheel', 'rear_right_wheel']",309.0672319806178,82.92549969715324,309.0672319806178,82.92549969715324,-3.270745003028468,4.4821320411871595,-3.270745003028468,4.4821320411871595,0.0,0.0,0.0,0.0
1737148955.6208901,4789,1737149032,944185536,,"['front_left_wheel', 'front_right_wheel', 'rear_left_wheel', 'rear_right_wheel']",308.78861296184135,83.30102967898243,308.78861296184135,83.30102967898243,-3.3313143549364024,4.542701393095094,-3.3313143549364024,4.542701393095094,0.0,0.0,0.0,0.0
1737148955.719733,4790,1737149033,43254609,,"['front_left_wheel', 'front_right_wheel', 'rear_left_wheel', 'rear_right_wheel']",308.4009691096305,83.82798304058147,308.4009691096305,83.82798304058147,-3.3313143549364024,4.542701393095094,-3.3313143549364024,4.542701393095094,0.0,0.0,0.0,0.0
1737148955.8185787,4791,1737149033,142316271,,"['front_left_wheel', 'front_right_wheel', 'rear_left_wheel', 'rear_right_wheel']",308.0254391278013,84.34282253179892,308.0254391278013,84.34282253179892,-3.3918837068443373,4.603270745003028,-3.3918837068443373,4.603270745003028,0.0,0.0,0.0,0.0
1737148955.9184613,4792,1737149033,241817394,,"['front_left_wheel', 'front_right_wheel', 'rear_left_wheel', 'rear_right_wheel']",307.73470623864324,84.73652331920049,307.73470623864324,84.73652331920049,-3.3918837068443373,4.603270745003028,-3.3918837068443373,4.603270745003028,0.0,0.0,0.0,0.0
1737148956.0183797,4793,1737149033,341136407,,"['front_left_wheel', 'front_right_wheel', 'rear_left_wheel', 'rear_right_wheel']",307.37734706238643,85.22107813446397,307.37734706238643,85.22107813446397,-3.3918837068443373,4.663840096910963,-3.3918837068443373,4.663840096910963,0.0,0.0,0.0,0.0
1737148956.115217,4794,1737149033,439159856,,"['front_left_wheel', 'front_right_wheel', 'rear_left_wheel', 'rear_right_wheel']",307.1168988491823,85.57238037552999,307.1168988491823,85.57238037552999,-3.3918837068443373,4.663840096910963,-3.3918837068443373,4.663840096910963,0.0,0.0,0.0,0.0
1737148956.2152023,4795,1737149033,538773297,,"['front_left_wheel', 'front_right_wheel', 'rear_left_wheel', 'rear_right_wheel']",306.71714112659,86.1053906723198,306.71714112659,86.1053906723198,-3.4524530587522713,4.724409448818898,-3.4524530587522713,4.724409448818898,0.0,0.0,0.0,0.0
1737148956.3139136,4796,1737149033,637338204,,"['front_left_wheel', 'front_right_wheel', 'rear_left_wheel', 'rear_right_wheel']",306.3173834039976,86.64445790430042,306.3173834039976,86.64445790430042,-3.5735917625681406,4.784978800726832,-3.5735917625681406,4.784978800726832,0.0,0.0,0.0,0.0
1737148956.4128625,4797,1737149033,736429906,,"['front_left_wheel', 'front_right_wheel', 'rear_left_wheel', 'rear_right_wheel']",306.02059357964873,87.05027256208359,306.02059357964873,87.05027256208359,-3.5735917625681406,4.784978800726832,-3.5735917625681406,4.784978800726832,0.0,0.0,0.0,0.0
1737148956.511831,4798,1737149033,835633713,,"['front_left_wheel', 'front_right_wheel', 'rear_left_wheel', 'rear_right_wheel']",305.6329497274379,87.55905511811024,305.6329497274379,87.55905511811024,-3.634161114476075,4.845548152634767,-3.634161114476075,4.845548152634767,0.0,0.0,0.0,0.0
1737148956.6113362,4799,1737149033,934952018,,"['front_left_wheel', 'front_right_wheel', 'rear_left_wheel', 'rear_right_wheel']",305.30587522713506,88.00726832222895,305.30587522713506,88.00726832222895,-3.634161114476075,4.845548152634767,-3.634161114476075,4.845548152634767,0.0,0.0,0.0,0.0
1737148956.7209256,4800,1737149034,44725159,,"['front_left_wheel', 'front_right_wheel', 'rear_left_wheel', 'rear_right_wheel']",304.8758328285887,88.57662023016354,304.8758328285887,88.57662023016354,-3.6947304663840095,4.906117504542702,-3.6947304663840095,4.906117504542702,0.0,0.0,0.0,0.0
1737148956.8200045,4801,1737149034,143550508,,"['front_left_wheel', 'front_right_wheel', 'rear_left_wheel', 'rear_right_wheel']",304.52453058752275,89.04300423985464,304.52453058752275,89.04300423985464,-3.6947304663840095,4.906117504542702,-3.6947304663840095,4.906117504542702,0.0,0.0,0.0,0.0
1737148956.9182975,4802,1737149034,242329659,,"['front_left_wheel', 'front_right_wheel', 'rear_left_wheel', 'rear_right_wheel']",304.1005451241672,89.60024227740763,304.1005451241672,89.60024227740763,-3.7552998182919444,4.966686856450636,-3.7552998182919444,4.966686856450636,0.0,0.0,0.0,0.0
1737148957.0185726,4803,1737149034,342222438,,"['front_left_wheel', 'front_right_wheel', 'rear_left_wheel', 'rear_right_wheel']",303.8098122350091,89.98182919442762,303.8098122350091,89.98182919442762,-3.7552998182919444,4.966686856450636,-3.7552998182919444,4.966686856450636,0.0,0.0,0.0,0.0
1737148957.116989,4804,1737149034,441167843,,"['front_left_wheel', 'front_right_wheel', 'rear_left_wheel', 'rear_right_wheel']",303.37976983646274,90.55118110236221,303.37976983646274,90.55118110236221,-3.815869170199879,5.027256208358571,-3.815869170199879,5.027256208358571,0.0,0.0,0.0,0.0
1737148957.2157626,4805,1737149034,539329013,,"['front_left_wheel', 'front_right_wheel', 'rear_left_wheel', 'rear_right_wheel']",303.02241066020594,91.02967898243489,303.02241066020594,91.02967898243489,-3.815869170199879,5.027256208358571,-3.815869170199879,5.027256208358571,0.0,0.0,0.0,0.0
1737148957.3153481,4806,1737149034,638420280,,"['front_left_wheel', 'front_right_wheel', 'rear_left_wheel', 'rear_right_wheel']",302.6529376135676,91.50211992731677,302.6529376135676,91.50211992731677,-3.8764385221078137,5.087825560266505,-3.8764385221078137,5.087825560266505,0.0,0.0,0.0,0.0
1737148957.4141543,4807,1737149034,737800523,,"['front_left_wheel', 'front_right_wheel', 'rear_left_wheel', 'rear_right_wheel']",302.21078134463966,92.08358570563294,302.21078134463966,92.08358570563294,-3.8764385221078137,5.087825560266505,-3.8764385221078137,5.087825560266505,0.0,0.0,0.0,0.0
1737148957.5140977,4808,1737149034,836522185,,"['front_left_wheel', 'front_right_wheel', 'rear_left_wheel', 'rear_right_wheel']",301.92004845548155,92.47122955784373,301.92004845548155,92.47122955784373,-3.937007874015748,5.14839491217444,-3.937007874015748,5.14839491217444,0.0,0.0,0.0,0.0
1737148957.61187,4809,1737149034,935601477,,"['front_left_wheel', 'front_right_wheel', 'rear_left_wheel', 'rear_right_wheel']",301.465778316172,93.0587522713507,301.465778316172,93.0587522713507,-3.937007874015748,5.14839491217444,-3.937007874015748,5.14839491217444,0.0,0.0,0.0,0.0
1737148957.7112272,4810,1737149035,34342829,,"['front_left_wheel', 'front_right_wheel', 'rear_left_wheel', 'rear_right_wheel']",301.1629315566324,93.46456692913385,301.1629315566324,93.46456692913385,-3.997577225923683,5.208964264082375,-3.997577225923683,5.208964264082375,0.0,0.0,0.0,0.0
1737148957.8202834,4811,1737149035,144278125,,"['front_left_wheel', 'front_right_wheel', 'rear_left_wheel', 'rear_right_wheel']",300.69654754694125,94.076317383404,300.69654754694125,94.076317383404,-4.058146577831618,5.269533615990309,-4.058146577831618,5.269533615990309,0.0,0.0,0.0,0.0
1737148957.9203887,4812,1737149035,244131443,,"['front_left_wheel', 'front_right_wheel', 'rear_left_wheel', 'rear_right_wheel']",300.24833434282255,94.64566929133858,300.24833434282255,94.64566929133858,-4.058146577831618,5.269533615990309,-4.058146577831618,5.269533615990309,0.0,0.0,0.0,0.0
1737148958.0190969,4813,1737149035,342850382,,"['front_left_wheel', 'front_right_wheel', 'rear_left_wheel', 'rear_right_wheel']",299.88491823137497,95.25136281041793,299.88491823137497,95.25136281041793,-4.118715929739552,5.3301029678982434,-4.118715929739552,5.3301029678982434,0.0,0.0,0.0,0.0
1737148958.118342,4814,1737149035,441892152,,"['front_left_wheel', 'front_right_wheel', 'rear_left_wheel', 'rear_right_wheel']",299.47304663840094,95.65717746820108,299.47304663840094,95.65717746820108,-4.118715929739552,5.3301029678982434,-4.118715929739552,5.3301029678982434,0.0,0.0,0.0,0.0
1737148958.2174761,4815,1737149035,541066804,,"['front_left_wheel', 'front_right_wheel', 'rear_left_wheel', 'rear_right_wheel']",299.0006056935191,96.26892792247124,299.0006056935191,96.26892792247124,-4.179285281647486,5.390672319806178,-4.179285281647486,5.390672319806178,0.0,0.0,0.0,0.0
