Time,header.seq,header.stamp.secs,header.stamp.nsecs,header.frame_id,name,position_0,position_1,position_2,position_3,velocity_0,velocity_1,velocity_2,velocity_3,effort_0,effort_1,effort_2,effort_3
1737149564.4075449,10867,1737149641,36587673,,"['front_left_wheel', 'front_right_wheel', 'rear_left_wheel', 'rear_right_wheel']",532.4530587522713,605.6147789218655,532.4530587522713,605.6147789218655,0.0,0.0,0.0,0.0,0.0,0.0,0.0,0.0
1737149564.4078836,10868,1737149641,135442019,,"['front_left_wheel', 'front_right_wheel', 'rear_left_wheel', 'rear_right_wheel']",532.4530587522713,605.6147789218655,532.4530587522713,605.6147789218655,0.0,0.0,0.0,0.0,0.0,0.0,0.0,0.0
1737149564.408518,10869,1737149641,234014656,,"['front_left_wheel', 'front_right_wheel', 'rear_left_wheel', 'rear_right_wheel']",532.4530587522713,605.6147789218655,532.4530587522713,605.6147789218655,0.0,0.0,0.0,0.0,0.0,0.0,0.0,0.0
1737149564.4087641,10870,1737149641,345077388,,"['front_left_wheel', 'front_right_wheel', 'rear_left_wheel', 'rear_right_wheel']",532.4530587522713,605.6147789218655,532.4530587522713,605.6147789218655,0.0,0.0,0.0,0.0,0.0,0.0,0.0,0.0
1737149564.40921,10871,1737149641,443999790,,"['front_left_wheel', 'front_right_wheel', 'rear_left_wheel', 'rear_right_wheel']",532.4530587522713,605.6147789218655,532.4530587522713,605.6147789218655,0.0,0.0,0.0,0.0,0.0,0.0,0.0,0.0
1737149564.4095075,10872,1737149641,542243640,,"['front_left_wheel', 'front_right_wheel', 'rear_left_wheel', 'rear_right_wheel']",532.4530587522713,605.6147789218655,532.4530587522713,605.6147789218655,0.0,0.0,0.0,0.0,0.0,0.0,0.0,0.0
1737149564.4098113,10873,1737149641,641553440,,"['front_left_wheel', 'front_right_wheel', 'rear_left_wheel', 'rear_right_wheel']",532.4530587522713,605.6147789218655,532.4530587522713,605.6147789218655,0.0,0.0,0.0,0.0,0.0,0.0,0.0,0.0
1737149564.4100873,10874,1737149641,740278822,,"['front_left_wheel', 'front_right_wheel', 'rear_left_wheel', 'rear_right_wheel']",532.4530587522713,605.6147789218655,532.4530587522713,605.6147789218655,0.0,0.0,0.0,0.0,0.0,0.0,0.0,0.0
1737149564.492481,10875,1737149641,839219492,,"['front_left_wheel', 'front_right_wheel', 'rear_left_wheel', 'rear_right_wheel']",532.4530587522713,605.6147789218655,532.4530587522713,605.6147789218655,0.0,0.0,0.0,0.0,0.0,0.0,0.0,0.0
1737149564.590864,10876,1737149641,938124981,,"['front_left_wheel', 'front_right_wheel', 'rear_left_wheel', 'rear_right_wheel']",532.4530587522713,605.6147789218655,532.4530587522713,605.6147789218655,0.0,0.0,0.0,0.0,0.0,0.0,0.0,0.0
1737149564.6900587,10877,1737149642,37361196,,"['front_left_wheel', 'front_right_wheel', 'rear_left_wheel', 'rear_right_wheel']",532.4530587522713,605.6147789218655,532.4530587522713,605.6147789218655,0.0,0.0,0.0,0.0,0.0,0.0,0.0,0.0
1737149564.7895606,10878,1737149642,136506562,,"['front_left_wheel', 'front_right_wheel', 'rear_left_wheel', 'rear_right_wheel']",532.4530587522713,605.6147789218655,532.4530587522713,605.6147789218655,0.0,0.0,0.0,0.0,0.0,0.0,0.0,0.0
1737149564.8881578,10879,1737149642,235306605,,"['front_left_wheel', 'front_right_wheel', 'rear_left_wheel', 'rear_right_wheel']",532.4530587522713,605.6147789218655,532.4530587522713,605.6147789218655,0.0,0.0,0.0,0.0,0.0,0.0,0.0,0.0
1737149564.998678,10880,1737149642,345725676,,"['front_left_wheel', 'front_right_wheel', 'rear_left_wheel', 'rear_right_wheel']",532.4530587522713,605.6147789218655,532.4530587522713,605.6147789218655,0.0,0.0,0.0,0.0,0.0,0.0,0.0,0.0
1737149565.0975642,10881,1737149642,444266159,,"['front_left_wheel', 'front_right_wheel', 'rear_left_wheel', 'rear_right_wheel']",532.4530587522713,605.6147789218655,532.4530587522713,605.6147789218655,0.0,0.0,0.0,0.0,0.0,0.0,0.0,0.0
1737149565.1969812,10882,1737149642,543682361,,"['front_left_wheel', 'front_right_wheel', 'rear_left_wheel', 'rear_right_wheel']",532.4530587522713,605.6147789218655,532.4530587522713,605.6147789218655,0.0,0.0,0.0,0.0,0.0,0.0,0.0,0.0
1737149565.2956922,10883,1737149642,642187748,,"['front_left_wheel', 'front_right_wheel', 'rear_left_wheel', 'rear_right_wheel']",532.4530587522713,605.6147789218655,532.4530587522713,605.6147789218655,0.0,0.0,0.0,0.0,0.0,0.0,0.0,0.0
1737149565.3952878,10884,1737149642,741377672,,"['front_left_wheel', 'front_right_wheel', 'rear_left_wheel', 'rear_right_wheel']",532.4530587522713,605.6147789218655,532.4530587522713,605.6147789218655,0.0,0.0,0.0,0.0,0.0,0.0,0.0,0.0
1737149565.4945438,10885,1737149642,840650183,,"['front_left_wheel', 'front_right_wheel', 'rear_left_wheel', 'rear_right_wheel']",532.4530587522713,605.6147789218655,532.4530587522713,605.6147789218655,0.0,0.0,0.0,0.0,0.0,0.0,0.0,0.0
1737149565.5931754,10886,1737149642,939142284,,"['front_left_wheel', 'front_right_wheel', 'rear_left_wheel', 'rear_right_wheel']",532.4530587522713,605.6147789218655,532.4530587522713,605.6147789218655,0.0,0.0,0.0,0.0,0.0,0.0,0.0,0.0
1737149565.6925435,10887,1737149643,38920918,,"['front_left_wheel', 'front_right_wheel', 'rear_left_wheel', 'rear_right_wheel']",532.4530587522713,605.6147789218655,532.4530587522713,605.6147789218655,0.0,0.0,0.0,0.0,0.0,0.0,0.0,0.0
1737149565.7910945,10888,1737149643,138067425,,"['front_left_wheel', 'front_right_wheel', 'rear_left_wheel', 'rear_right_wheel']",532.495457298607,605.6511205330103,532.495457298607,605.6511205330103,1.8170805572380375,1.8170805572380375,1.8170805572380375,1.8170805572380375,0.0,0.0,0.0,0.0
1737149565.889212,10889,1737149643,236392193,,"['front_left_wheel', 'front_right_wheel', 'rear_left_wheel', 'rear_right_wheel']",532.695336159903,605.8388855239249,532.695336159903,605.8388855239249,2.4227740763173835,2.4227740763173835,2.4227740763173835,2.4227740763173835,0.0,0.0,0.0,0.0
1737149565.988859,10890,1737149643,335766225,,"['front_left_wheel', 'front_right_wheel', 'rear_left_wheel', 'rear_right_wheel']",532.9194427619625,606.0751059963659,532.9194427619625,606.0751059963659,2.4227740763173835,2.4227740763173835,2.4227740763173835,2.4227740763173835,0.0,0.0,0.0,0.0
1737149566.098336,10891,1737149643,445314822,,"['front_left_wheel', 'front_right_wheel', 'rear_left_wheel', 'rear_right_wheel']",533.1617201695942,606.3113264688068,533.1617201695942,606.3113264688068,2.4227740763173835,2.4227740763173835,2.4227740763173835,2.4227740763173835,0.0,0.0,0.0,0.0
1737149566.197724,10892,1737149643,544641736,,"['front_left_wheel', 'front_right_wheel', 'rear_left_wheel', 'rear_right_wheel']",533.4342822531798,606.5778316172017,533.4342822531798,606.5778316172017,2.4227740763173835,2.4227740763173835,2.4227740763173835,2.4227740763173835,0.0,0.0,0.0,0.0
1737149566.2960088,10893,1737149643,643135406,,"['front_left_wheel', 'front_right_wheel', 'rear_left_wheel', 'rear_right_wheel']",533.634161114476,606.7898243488795,533.634161114476,606.7898243488795,2.4227740763173835,2.4227740763173835,2.4227740763173835,2.4227740763173835,0.0,0.0,0.0,0.0
1737149566.3953848,10894,1737149643,742427062,,"['front_left_wheel', 'front_right_wheel', 'rear_left_wheel', 'rear_right_wheel']",533.9248940036341,607.0623864324651,533.9248940036341,607.0623864324651,4.179285281647486,4.179285281647486,4.179285281647486,4.179285281647486,0.0,0.0,0.0,0.0
1737149566.49489,10895,1737149643,842087172,,"['front_left_wheel', 'front_right_wheel', 'rear_left_wheel', 'rear_right_wheel']",534.3246517262265,607.5711689884919,534.3246517262265,607.5711689884919,5.996365838885524,5.996365838885524,5.996365838885524,5.996365838885524,0.0,0.0,0.0,0.0
1737149566.5931375,10896,1737149643,940336867,,"['front_left_wheel', 'front_right_wheel', 'rear_left_wheel', 'rear_right_wheel']",534.9061175045427,608.0254391278014,534.9061175045427,608.0254391278014,6.0569351907934585,6.0569351907934585,6.0569351907934585,6.0569351907934585,0.0,0.0,0.0,0.0
1737149566.6934524,10897,1737149644,39822672,,"['front_left_wheel', 'front_right_wheel', 'rear_left_wheel', 'rear_right_wheel']",535.5966081162932,608.7159297395518,535.5966081162932,608.7159297395518,6.0569351907934585,6.0569351907934585,6.0569351907934585,6.0569351907934585,0.0,0.0,0.0,0.0
1737149566.7916117,10898,1737149644,138602049,,"['front_left_wheel', 'front_right_wheel', 'rear_left_wheel', 'rear_right_wheel']",536.0569351907935,609.1762568140521,536.0569351907935,609.1762568140521,6.0569351907934585,6.0569351907934585,6.0569351907934585,6.0569351907934585,0.0,0.0,0.0,0.0
1737149566.8929124,10899,1737149644,237439109,,"['front_left_wheel', 'front_right_wheel', 'rear_left_wheel', 'rear_right_wheel']",536.747425802544,609.8667474258025,536.747425802544,609.8667474258025,6.0569351907934585,6.0569351907934585,6.0569351907934585,6.0569351907934585,0.0,0.0,0.0,0.0
1737149566.9891336,10900,1737149644,336196490,,"['front_left_wheel', 'front_right_wheel', 'rear_left_wheel', 'rear_right_wheel']",537.4379164142944,610.557238037553,537.4379164142944,610.557238037553,6.0569351907934585,6.0569351907934585,6.0569351907934585,6.0569351907934585,0.0,0.0,0.0,0.0
1737149567.0885305,10901,1737149644,435681418,,"['front_left_wheel', 'front_right_wheel', 'rear_left_wheel', 'rear_right_wheel']",537.9951544518474,611.1508176862508,537.9951544518474,611.1508176862508,6.0569351907934585,6.0569351907934585,6.0569351907934585,6.0569351907934585,0.0,0.0,0.0,0.0
1737149567.1986601,10902,1737149644,545438888,,"['front_left_wheel', 'front_right_wheel', 'rear_left_wheel', 'rear_right_wheel']",538.5887341005451,611.7080557238037,538.5887341005451,611.7080557238037,6.0569351907934585,6.0569351907934585,6.0569351907934585,6.0569351907934585,0.0,0.0,0.0,0.0
1737149567.2968493,10903,1737149644,644308937,,"['front_left_wheel', 'front_right_wheel', 'rear_left_wheel', 'rear_right_wheel']",539.2792247122956,612.3985463355542,539.2792247122956,612.3985463355542,6.0569351907934585,6.0569351907934585,6.0569351907934585,6.0569351907934585,0.0,0.0,0.0,0.0
1737149567.3961518,10904,1737149644,743258481,,"['front_left_wheel', 'front_right_wheel', 'rear_left_wheel', 'rear_right_wheel']",539.7395517867959,612.8649303452453,539.7395517867959,612.8649303452453,6.0569351907934585,6.0569351907934585,6.0569351907934585,6.0569351907934585,0.0,0.0,0.0,0.0
1737149567.4956002,10905,1737149644,842958426,,"['front_left_wheel', 'front_right_wheel', 'rear_left_wheel', 'rear_right_wheel']",540.4179285281648,613.5614778921866,540.4179285281648,613.5614778921866,5.81465778316172,6.0569351907934585,5.81465778316172,6.0569351907934585,0.0,0.0,0.0,0.0
1737149567.5947037,10906,1737149644,942001308,,"['front_left_wheel', 'front_right_wheel', 'rear_left_wheel', 'rear_right_wheel']",540.854027861902,614.2459115687462,540.854027861902,614.2459115687462,4.118715929739552,6.0569351907934585,4.118715929739552,6.0569351907934585,0.0,0.0,0.0,0.0
1737149567.6946714,10907,1737149645,40874750,,"['front_left_wheel', 'front_right_wheel', 'rear_left_wheel', 'rear_right_wheel']",541.320411871593,614.7607510599637,541.320411871593,614.7607510599637,3.089036947304664,6.0569351907934585,3.089036947304664,6.0569351907934585,0.0,0.0,0.0,0.0
1737149567.7930007,10908,1737149645,139989100,,"['front_left_wheel', 'front_right_wheel', 'rear_left_wheel', 'rear_right_wheel']",541.6353725015143,615.396729254997,541.6353725015143,615.396729254997,2.5439127801332524,6.0569351907934585,2.5439127801332524,6.0569351907934585,0.0,0.0,0.0,0.0
1737149567.8920472,10909,1737149645,238973378,,"['front_left_wheel', 'front_right_wheel', 'rear_left_wheel', 'rear_right_wheel']",541.847365233192,615.9660811629316,541.847365233192,615.9660811629316,2.2410660205935797,6.0569351907934585,2.2410660205935797,6.0569351907934585,0.0,0.0,0.0,0.0
1737149567.9905655,10910,1737149645,337972124,,"['front_left_wheel', 'front_right_wheel', 'rear_left_wheel', 'rear_right_wheel']",542.0775287704422,616.5475469412478,542.0775287704422,616.5475469412478,2.2410660205935797,6.0569351907934585,2.2410660205935797,6.0569351907934585,0.0,0.0,0.0,0.0
1737149568.0895138,10911,1737149645,436442888,,"['front_left_wheel', 'front_right_wheel', 'rear_left_wheel', 'rear_right_wheel']",542.2471229557844,617.2380375529982,542.2471229557844,617.2380375529982,2.2410660205935797,6.0569351907934585,2.2410660205935797,6.0569351907934585,0.0,0.0,0.0,0.0
1737149568.188484,10912,1737149645,535745261,,"['front_left_wheel', 'front_right_wheel', 'rear_left_wheel', 'rear_right_wheel']",542.5075711689885,617.7468201090248,542.5075711689885,617.7468201090248,2.2410660205935797,6.0569351907934585,2.2410660205935797,6.0569351907934585,0.0,0.0,0.0,0.0
1737149568.3028111,10913,1737149645,645189713,,"['front_left_wheel', 'front_right_wheel', 'rear_left_wheel', 'rear_right_wheel']",542.7680193821926,618.4554815263476,542.7680193821926,618.4554815263476,2.2410660205935797,6.0569351907934585,2.2410660205935797,6.0569351907934585,0.0,0.0,0.0,0.0
1737149568.39733,10914,1737149645,744711207,,"['front_left_wheel', 'front_right_wheel', 'rear_left_wheel', 'rear_right_wheel']",543.0102967898243,619.0793458509994,543.0102967898243,619.0793458509994,2.2410660205935797,6.0569351907934585,2.2410660205935797,6.0569351907934585,0.0,0.0,0.0,0.0
1737149568.4962769,10915,1737149645,843251323,,"['front_left_wheel', 'front_right_wheel', 'rear_left_wheel', 'rear_right_wheel']",543.2222895215021,619.6668685645063,543.2222895215021,619.6668685645063,2.362204724409449,6.0569351907934585,2.362204724409449,6.0569351907934585,0.0,0.0,0.0,0.0
1737149568.5958154,10916,1737149645,942773644,,"['front_left_wheel', 'front_right_wheel', 'rear_left_wheel', 'rear_right_wheel']",543.4887946698971,620.2301635372502,543.4887946698971,620.2301635372502,3.3918837068443373,6.0569351907934585,3.3918837068443373,6.0569351907934585,0.0,0.0,0.0,0.0
1737149568.694719,10917,1737149646,41697244,,"['front_left_wheel', 'front_right_wheel', 'rear_left_wheel', 'rear_right_wheel']",543.8703815869171,620.9206541490006,543.8703815869171,620.9206541490006,6.0569351907934585,6.0569351907934585,6.0569351907934585,6.0569351907934585,0.0,0.0,0.0,0.0
1737149568.7948306,10918,1737149646,141121145,,"['front_left_wheel', 'front_right_wheel', 'rear_left_wheel', 'rear_right_wheel']",544.3731072077529,621.380981223501,544.3731072077529,621.380981223501,6.0569351907934585,6.0569351907934585,6.0569351907934585,6.0569351907934585,0.0,0.0,0.0,0.0
1737149568.8925228,10919,1737149646,239889996,,"['front_left_wheel', 'front_right_wheel', 'rear_left_wheel', 'rear_right_wheel']",545.0635978195033,622.0714718352514,545.0635978195033,622.0714718352514,6.0569351907934585,6.0569351907934585,6.0569351907934585,6.0569351907934585,0.0,0.0,0.0,0.0
1737149568.9967902,10920,1737149646,338725963,,"['front_left_wheel', 'front_right_wheel', 'rear_left_wheel', 'rear_right_wheel']",545.5299818291944,622.5560266505149,545.5299818291944,622.5560266505149,6.0569351907934585,6.0569351907934585,6.0569351907934585,6.0569351907934585,0.0,0.0,0.0,0.0
1737149569.090589,10921,1737149646,437426020,,"['front_left_wheel', 'front_right_wheel', 'rear_left_wheel', 'rear_right_wheel']",546.2204724409448,623.2222895215021,546.2204724409448,623.2222895215021,6.0569351907934585,6.0569351907934585,6.0569351907934585,6.0569351907934585,0.0,0.0,0.0,0.0
1737149569.1896574,10922,1737149646,536741204,,"['front_left_wheel', 'front_right_wheel', 'rear_left_wheel', 'rear_right_wheel']",546.8079951544519,623.9127801332526,546.8079951544519,623.9127801332526,6.0569351907934585,6.0569351907934585,6.0569351907934585,6.0569351907934585,0.0,0.0,0.0,0.0
1737149569.2877104,10923,1737149646,635254082,,"['front_left_wheel', 'front_right_wheel', 'rear_left_wheel', 'rear_right_wheel']",547.3712901271956,624.3731072077529,547.3712901271956,624.3731072077529,6.0569351907934585,6.0569351907934585,6.0569351907934585,6.0569351907934585,0.0,0.0,0.0,0.0
1737149569.3986828,10924,1737149646,745741035,,"['front_left_wheel', 'front_right_wheel', 'rear_left_wheel', 'rear_right_wheel']",548.0617807389461,625.0635978195033,548.0617807389461,625.0635978195033,6.0569351907934585,6.0569351907934585,6.0569351907934585,6.0569351907934585,0.0,0.0,0.0,0.0
1737149569.4971185,10925,1737149646,844255762,,"['front_left_wheel', 'front_right_wheel', 'rear_left_wheel', 'rear_right_wheel']",548.7522713506966,625.7540884312538,548.7522713506966,625.7540884312538,6.0569351907934585,6.0569351907934585,6.0569351907934585,6.0569351907934585,0.0,0.0,0.0,0.0
1737149569.5964823,10926,1737149646,943574851,,"['front_left_wheel', 'front_right_wheel', 'rear_left_wheel', 'rear_right_wheel']",549.2186553603876,626.2386432465172,549.2186553603876,626.2386432465172,6.0569351907934585,4.724409448818898,6.0569351907934585,4.724409448818898,0.0,0.0,0.0,0.0
1737149569.6958132,10927,1737149647,43149675,,"['front_left_wheel', 'front_right_wheel', 'rear_left_wheel', 'rear_right_wheel']",549.9030890369473,626.7231980617807,549.9030890369473,626.7231980617807,6.0569351907934585,4.118715929739552,6.0569351907934585,4.118715929739552,0.0,0.0,0.0,0.0
1737149569.794573,10928,1737149647,141349542,,"['front_left_wheel', 'front_right_wheel', 'rear_left_wheel', 'rear_right_wheel']",550.4179285281647,627.09872804361,550.4179285281647,627.09872804361,6.0569351907934585,3.997577225923683,6.0569351907934585,3.997577225923683,0.0,0.0,0.0,0.0
1737149569.8929229,10929,1737149647,240115634,,"['front_left_wheel', 'front_right_wheel', 'rear_left_wheel', 'rear_right_wheel']",551.0539067231981,627.4924288310116,551.0539067231981,627.4924288310116,6.0569351907934585,3.937007874015748,6.0569351907934585,3.937007874015748,0.0,0.0,0.0,0.0
1737149569.992558,10930,1737149647,340079503,,"['front_left_wheel', 'front_right_wheel', 'rear_left_wheel', 'rear_right_wheel']",551.7443973349485,627.9345850999395,551.7443973349485,627.9345850999395,6.0569351907934585,3.815869170199879,6.0569351907934585,3.815869170199879,0.0,0.0,0.0,0.0
1737149570.0916855,10931,1737149647,438896360,,"['front_left_wheel', 'front_right_wheel', 'rear_left_wheel', 'rear_right_wheel']",552.2047244094488,628.2434887946699,552.2047244094488,628.2434887946699,6.0569351907934585,3.815869170199879,6.0569351907934585,3.815869170199879,0.0,0.0,0.0,0.0
1737149570.1903067,10932,1737149647,537286652,,"['front_left_wheel', 'front_right_wheel', 'rear_left_wheel', 'rear_right_wheel']",552.9073288915808,628.6917019987886,552.9073288915808,628.6917019987886,6.0569351907934585,3.815869170199879,6.0569351907934585,3.815869170199879,0.0,0.0,0.0,0.0
1737149570.2887657,10933,1737149647,636134553,,"['front_left_wheel', 'front_right_wheel', 'rear_left_wheel', 'rear_right_wheel']",553.3979406420351,629.0975166565718,553.3979406420351,629.0975166565718,6.0569351907934585,3.815869170199879,6.0569351907934585,3.815869170199879,0.0,0.0,0.0,0.0
1737149570.388199,10934,1737149647,735276915,,"['front_left_wheel', 'front_right_wheel', 'rear_left_wheel', 'rear_right_wheel']",554.1005451241672,629.4427619624471,554.1005451241672,629.4427619624471,5.996365838885524,3.7552998182919444,5.996365838885524,3.7552998182919444,0.0,0.0,0.0,0.0
1737149570.4870684,10935,1737149647,834384084,,"['front_left_wheel', 'front_right_wheel', 'rear_left_wheel', 'rear_right_wheel']",554.7244094488188,629.8122350090854,554.7244094488188,629.8122350090854,5.996365838885524,3.7552998182919444,5.996365838885524,3.7552998182919444,0.0,0.0,0.0,0.0
1737149570.5976012,10936,1737149647,944583886,,"['front_left_wheel', 'front_right_wheel', 'rear_left_wheel', 'rear_right_wheel']",555.2937613567535,630.2301635372502,555.2937613567535,630.2301635372502,6.0569351907934585,3.634161114476075,6.0569351907934585,3.634161114476075,0.0,0.0,0.0,0.0
1737149570.6956365,10937,1737149648,43076539,,"['front_left_wheel', 'front_right_wheel', 'rear_left_wheel', 'rear_right_wheel']",555.8752271350697,630.5087825560266,555.8752271350697,630.5087825560266,6.0569351907934585,3.634161114476075,6.0569351907934585,3.634161114476075,0.0,0.0,0.0,0.0
1737149570.7957458,10938,1737149648,142673977,,"['front_left_wheel', 'front_right_wheel', 'rear_left_wheel', 'rear_right_wheel']",556.56571774682,630.9145972138099,556.56571774682,630.9145972138099,6.0569351907934585,3.5735917625681406,6.0569351907934585,3.5735917625681406,0.0,0.0,0.0,0.0
1737149570.894765,10939,1737149648,241841662,,"['front_left_wheel', 'front_right_wheel', 'rear_left_wheel', 'rear_right_wheel']",557.0260448213204,631.1932162325863,557.0260448213204,631.1932162325863,6.0569351907934585,3.5735917625681406,6.0569351907934585,3.5735917625681406,0.0,0.0,0.0,0.0
1737149570.993782,10940,1737149648,341048450,,"['front_left_wheel', 'front_right_wheel', 'rear_left_wheel', 'rear_right_wheel']",557.7165354330708,631.611144760751,557.7165354330708,631.611144760751,6.0569351907934585,3.5735917625681406,6.0569351907934585,3.5735917625681406,0.0,0.0,0.0,0.0
1737149571.0935478,10941,1737149648,439720740,,"['front_left_wheel', 'front_right_wheel', 'rear_left_wheel', 'rear_right_wheel']",558.2858873410055,632.0048455481526,558.2858873410055,632.0048455481526,6.0569351907934585,3.5735917625681406,6.0569351907934585,3.5735917625681406,0.0,0.0,0.0,0.0
1737149571.191056,10942,1737149648,538081496,,"['front_left_wheel', 'front_right_wheel', 'rear_left_wheel', 'rear_right_wheel']",558.8673531193217,632.2774076317384,558.8673531193217,632.2774076317384,6.0569351907934585,3.5735917625681406,6.0569351907934585,3.5735917625681406,0.0,0.0,0.0,0.0
1737149571.2898278,10943,1737149648,637440241,,"['front_left_wheel', 'front_right_wheel', 'rear_left_wheel', 'rear_right_wheel']",559.557843731072,632.6832222895215,559.557843731072,632.6832222895215,6.0569351907934585,3.5735917625681406,6.0569351907934585,3.5735917625681406,0.0,0.0,0.0,0.0
1737149571.3896918,10944,1737149648,736716304,,"['front_left_wheel', 'front_right_wheel', 'rear_left_wheel', 'rear_right_wheel']",560.0181708055724,632.9557843731072,560.0181708055724,632.9557843731072,6.0569351907934585,3.5735917625681406,6.0569351907934585,3.5735917625681406,0.0,0.0,0.0,0.0
1737149571.4887612,10945,1737149648,835855080,,"['front_left_wheel', 'front_right_wheel', 'rear_left_wheel', 'rear_right_wheel']",560.7086614173228,633.3676559660812,560.7086614173228,633.3676559660812,6.0569351907934585,3.5735917625681406,6.0569351907934585,3.5735917625681406,0.0,0.0,0.0,0.0
1737149571.5981896,10946,1737149648,945375140,,"['front_left_wheel', 'front_right_wheel', 'rear_left_wheel', 'rear_right_wheel']",561.3991520290733,633.785584494246,561.3991520290733,633.785584494246,6.0569351907934585,3.5735917625681406,6.0569351907934585,3.5735917625681406,0.0,0.0,0.0,0.0
1737149571.6967368,10947,1737149649,44137160,,"['front_left_wheel', 'front_right_wheel', 'rear_left_wheel', 'rear_right_wheel']",561.8958207147184,634.1732283464567,561.8958207147184,634.1732283464567,6.0569351907934585,3.5735917625681406,6.0569351907934585,3.5735917625681406,0.0,0.0,0.0,0.0
1737149571.7962496,10948,1737149649,143402111,,"['front_left_wheel', 'front_right_wheel', 'rear_left_wheel', 'rear_right_wheel']",562.6044821320412,634.5427013930952,562.6044821320412,634.5427013930952,6.0569351907934585,5.754088431253785,6.0569351907934585,5.754088431253785,0.0,0.0,0.0,0.0
1737149571.8947382,10949,1737149649,242324555,,"['front_left_wheel', 'front_right_wheel', 'rear_left_wheel', 'rear_right_wheel']",563.2101756511206,635.0938824954573,563.2101756511206,635.0938824954573,5.269533615990309,6.0569351907934585,5.269533615990309,6.0569351907934585,0.0,0.0,0.0,0.0
1737149571.9946532,10950,1737149649,341838118,,"['front_left_wheel', 'front_right_wheel', 'rear_left_wheel', 'rear_right_wheel']",563.6583888552393,635.6935190793458,563.6583888552393,635.6935190793458,2.362204724409449,6.0569351907934585,2.362204724409449,6.0569351907934585,0.0,0.0,0.0,0.0
1737149572.094528,10951,1737149649,441118012,,"['front_left_wheel', 'front_right_wheel', 'rear_left_wheel', 'rear_right_wheel']",563.9491217443974,636.2568140520897,563.9491217443974,636.2568140520897,0.8479709267110843,5.996365838885524,0.8479709267110843,5.996365838885524,0.0,0.0,0.0,0.0
1737149572.1917202,10952,1737149649,539150250,,"['front_left_wheel', 'front_right_wheel', 'rear_left_wheel', 'rear_right_wheel']",564.0339188370684,636.9291338582677,564.0339188370684,636.9291338582677,0.06056935190793459,6.0569351907934585,0.06056935190793459,6.0569351907934585,0.0,0.0,0.0,0.0
1737149572.2911124,10953,1737149649,638546383,,"['front_left_wheel', 'front_right_wheel', 'rear_left_wheel', 'rear_right_wheel']",563.9975772259237,637.4682010902483,563.9975772259237,637.4682010902483,-1.2719563900666262,6.0569351907934585,-1.2719563900666262,6.0569351907934585,0.0,0.0,0.0,0.0
1737149572.3904736,10954,1737149649,738024065,,"['front_left_wheel', 'front_right_wheel', 'rear_left_wheel', 'rear_right_wheel']",563.8400969109631,638.0678376741369,563.8400969109631,638.0678376741369,-1.8776499091459722,5.81465778316172,-1.8776499091459722,5.81465778316172,0.0,0.0,0.0,0.0
1737149572.4956853,10955,1737149649,836141534,,"['front_left_wheel', 'front_right_wheel', 'rear_left_wheel', 'rear_right_wheel']",563.6705027256208,638.6371895820714,563.6705027256208,638.6371895820714,-1.8776499091459722,5.81465778316172,-1.8776499091459722,5.81465778316172,0.0,0.0,0.0,0.0
1737149572.5875587,10956,1737149649,935044898,,"['front_left_wheel', 'front_right_wheel', 'rear_left_wheel', 'rear_right_wheel']",563.4827377347062,639.1762568140522,563.4827377347062,639.1762568140522,-1.8776499091459722,5.81465778316172,-1.8776499091459722,5.81465778316172,0.0,0.0,0.0,0.0
1737149572.6984248,10957,1737149650,45367229,,"['front_left_wheel', 'front_right_wheel', 'rear_left_wheel', 'rear_right_wheel']",563.2707450030284,639.8364627498486,563.2707450030284,639.8364627498486,-1.8776499091459722,5.81465778316172,-1.8776499091459722,5.81465778316172,0.0,0.0,0.0,0.0
1737149572.797253,10958,1737149650,144126499,,"['front_left_wheel', 'front_right_wheel', 'rear_left_wheel', 'rear_right_wheel']",563.137492428831,640.5148394912175,563.137492428831,640.5148394912175,-1.45366444579043,6.0569351907934585,-1.45366444579043,6.0569351907934585,0.0,0.0,0.0,0.0
1737149572.8963242,10959,1737149650,243851095,,"['front_left_wheel', 'front_right_wheel', 'rear_left_wheel', 'rear_right_wheel']",562.9739551786796,640.9812235009085,562.9739551786796,640.9812235009085,-1.2113870381586918,6.0569351907934585,-1.2113870381586918,6.0569351907934585,0.0,0.0,0.0,0.0
1737149572.9958346,10960,1737149650,342121901,,"['front_left_wheel', 'front_right_wheel', 'rear_left_wheel', 'rear_right_wheel']",562.8528164748637,641.6656571774681,562.8528164748637,641.6656571774681,-0.9691096305269534,6.0569351907934585,-0.9691096305269534,6.0569351907934585,0.0,0.0,0.0,0.0
1737149573.0939972,10961,1737149650,441170031,,"['front_left_wheel', 'front_right_wheel', 'rear_left_wheel', 'rear_right_wheel']",562.7619624470019,642.2652937613567,562.7619624470019,642.2652937613567,-0.9085402786190188,6.0569351907934585,-0.9085402786190188,6.0569351907934585,0.0,0.0,0.0,0.0
1737149573.1944928,10962,1737149650,541042611,,"['front_left_wheel', 'front_right_wheel', 'rear_left_wheel', 'rear_right_wheel']",562.67110841914,642.8043609933374,562.67110841914,642.8043609933374,-0.9085402786190188,6.0569351907934585,-0.9085402786190188,6.0569351907934585,0.0,0.0,0.0,0.0
1737149573.2924073,10963,1737149650,639849766,,"['front_left_wheel', 'front_right_wheel', 'rear_left_wheel', 'rear_right_wheel']",562.5863113264688,643.4948516050879,562.5863113264688,643.4948516050879,-0.726832222895215,6.0569351907934585,-0.726832222895215,6.0569351907934585,0.0,0.0,0.0,0.0
1737149573.3916242,10964,1737149650,738969260,,"['front_left_wheel', 'front_right_wheel', 'rear_left_wheel', 'rear_right_wheel']",562.5317989097516,643.9551786795881,562.5317989097516,643.9551786795881,-0.5451241671714112,6.0569351907934585,-0.5451241671714112,6.0569351907934585,0.0,0.0,0.0,0.0
1737149573.4901853,10965,1737149650,837312400,,"['front_left_wheel', 'front_right_wheel', 'rear_left_wheel', 'rear_right_wheel']",562.5136281041792,644.6577831617202,562.5136281041792,644.6577831617202,1.9987886129618415,6.0569351907934585,1.9987886129618415,6.0569351907934585,0.0,0.0,0.0,0.0
1737149573.5889335,10966,1737149650,936156732,,"['front_left_wheel', 'front_right_wheel', 'rear_left_wheel', 'rear_right_wheel']",562.6408237431859,645.1483949121745,562.6408237431859,645.1483949121745,4.966686856450636,6.0569351907934585,4.966686856450636,6.0569351907934585,0.0,0.0,0.0,0.0
1737149573.6874216,10967,1737149651,35161669,,"['front_left_wheel', 'front_right_wheel', 'rear_left_wheel', 'rear_right_wheel']",563.1798909751666,645.8207147183525,563.1798909751666,645.8207147183525,6.0569351907934585,5.087825560266505,6.0569351907934585,5.087825560266505,0.0,0.0,0.0,0.0
1737149573.808536,10968,1737149651,145447770,,"['front_left_wheel', 'front_right_wheel', 'rear_left_wheel', 'rear_right_wheel']",563.8158691701999,646.2992125984251,563.8158691701999,646.2992125984251,6.0569351907934585,3.0284675953967293,6.0569351907934585,3.0284675953967293,0.0,0.0,0.0,0.0
1737149573.8971062,10969,1737149651,244348961,,"['front_left_wheel', 'front_right_wheel', 'rear_left_wheel', 'rear_right_wheel']",564.3488794669897,646.5536038764385,564.3488794669897,646.5536038764385,6.0569351907934585,1.2719563900666262,6.0569351907934585,1.2719563900666262,0.0,0.0,0.0,0.0
1737149573.996082,10970,1737149651,343717804,,"['front_left_wheel', 'front_right_wheel', 'rear_left_wheel', 'rear_right_wheel']",564.954572986069,646.6686856450636,564.954572986069,646.6686856450636,6.0569351907934585,-0.18170805572380375,6.0569351907934585,-0.18170805572380375,0.0,0.0,0.0,0.0
1737149574.0955844,10971,1737149651,442983039,,"['front_left_wheel', 'front_right_wheel', 'rear_left_wheel', 'rear_right_wheel']",565.6450635978196,646.6262870987281,565.6450635978196,646.6262870987281,6.0569351907934585,-0.9691096305269534,6.0569351907934585,-0.9691096305269534,0.0,0.0,0.0,0.0
1737149574.1946356,10972,1737149651,542126513,,"['front_left_wheel', 'front_right_wheel', 'rear_left_wheel', 'rear_right_wheel']",566.1417322834645,646.5172622652938,566.1417322834645,646.5172622652938,5.632949727437917,-2.1199273167777104,5.632949727437917,-2.1199273167777104,0.0,0.0,0.0,0.0
1737149574.2944798,10973,1737149651,640447053,,"['front_left_wheel', 'front_right_wheel', 'rear_left_wheel', 'rear_right_wheel']",566.7413688673531,646.305269533616,566.7413688673531,646.305269533616,5.632949727437917,-2.1199273167777104,5.632949727437917,-2.1199273167777104,0.0,0.0,0.0,0.0
1737149574.391857,10974,1737149651,739167375,,"['front_left_wheel', 'front_right_wheel', 'rear_left_wheel', 'rear_right_wheel']",567.2319806178074,646.0629921259844,567.2319806178074,646.0629921259844,5.572380375529982,-2.180496668685645,5.572380375529982,-2.180496668685645,0.0,0.0,0.0,0.0
1737149574.4921005,10975,1737149651,838676880,,"['front_left_wheel', 'front_right_wheel', 'rear_left_wheel', 'rear_right_wheel']",567.7771047849787,645.8933979406421,567.7771047849787,645.8933979406421,5.572380375529982,-2.180496668685645,5.572380375529982,-2.180496668685645,0.0,0.0,0.0,0.0
1737149574.5906568,10976,1737149651,937788231,,"['front_left_wheel', 'front_right_wheel', 'rear_left_wheel', 'rear_right_wheel']",568.3827983040582,645.6450635978196,568.3827983040582,645.6450635978196,5.572380375529982,-2.180496668685645,5.572380375529982,-2.180496668685645,0.0,0.0,0.0,0.0
1737149574.6901925,10977,1737149652,36645679,,"['front_left_wheel', 'front_right_wheel', 'rear_left_wheel', 'rear_right_wheel']",568.8067837674137,645.4815263476681,568.8067837674137,645.4815263476681,5.572380375529982,-2.180496668685645,5.572380375529982,-2.180496668685645,0.0,0.0,0.0,0.0
1737149574.7886796,10978,1737149652,135819983,,"['front_left_wheel', 'front_right_wheel', 'rear_left_wheel', 'rear_right_wheel']",569.442761962447,645.2331920048456,569.442761962447,645.2331920048456,5.572380375529982,-2.180496668685645,5.572380375529982,-2.180496668685645,0.0,0.0,0.0,0.0
1737149574.8978403,10979,1737149652,245096699,,"['front_left_wheel', 'front_right_wheel', 'rear_left_wheel', 'rear_right_wheel']",570.0787401574803,644.9788007268322,570.0787401574803,644.9788007268322,5.572380375529982,-2.180496668685645,5.572380375529982,-2.180496668685645,0.0,0.0,0.0,0.0
1737149574.9974804,10980,1737149652,344615368,,"['front_left_wheel', 'front_right_wheel', 'rear_left_wheel', 'rear_right_wheel']",570.5208964264083,644.7970926711084,570.5208964264083,644.7970926711084,5.572380375529982,-2.180496668685645,5.572380375529982,-2.180496668685645,0.0,0.0,0.0,0.0
1737149575.096572,10981,1737149652,443852418,,"['front_left_wheel', 'front_right_wheel', 'rear_left_wheel', 'rear_right_wheel']",571.1387038158692,644.5729860690491,571.1387038158692,644.5729860690491,5.572380375529982,-2.180496668685645,5.572380375529982,-2.180496668685645,0.0,0.0,0.0,0.0
1737149575.1953933,10982,1737149652,542400521,,"['front_left_wheel', 'front_right_wheel', 'rear_left_wheel', 'rear_right_wheel']",571.7201695941853,644.3609933373713,571.7201695941853,644.3609933373713,6.0569351907934585,-1.2113870381586918,6.0569351907934585,-1.2113870381586918,0.0,0.0,0.0,0.0
1737149575.2941833,10983,1737149652,641201313,,"['front_left_wheel', 'front_right_wheel', 'rear_left_wheel', 'rear_right_wheel']",572.2471229557843,644.2761962447003,572.2471229557843,644.2761962447003,6.0569351907934585,-0.9691096305269534,6.0569351907934585,-0.9691096305269534,0.0,0.0,0.0,0.0
1737149575.3942173,10984,1737149652,741204980,,"['front_left_wheel', 'front_right_wheel', 'rear_left_wheel', 'rear_right_wheel']",572.9376135675349,644.1611144760751,572.9376135675349,644.1611144760751,6.0569351907934585,-0.9691096305269534,6.0569351907934585,-0.9691096305269534,0.0,0.0,0.0,0.0
1737149575.4920967,10985,1737149652,839771895,,"['front_left_wheel', 'front_right_wheel', 'rear_left_wheel', 'rear_right_wheel']",573.4100545124168,644.0823743185948,573.4100545124168,644.0823743185948,6.0569351907934585,-0.9691096305269534,6.0569351907934585,-0.9691096305269534,0.0,0.0,0.0,0.0
1737149575.5920787,10986,1737149652,938832020,,"['front_left_wheel', 'front_right_wheel', 'rear_left_wheel', 'rear_right_wheel']",574.1187159297396,643.9733494851605,574.1187159297396,643.9733494851605,6.0569351907934585,-0.9691096305269534,6.0569351907934585,-0.9691096305269534,0.0,0.0,0.0,0.0
1737149575.6897314,10987,1737149653,37218839,,"['front_left_wheel', 'front_right_wheel', 'rear_left_wheel', 'rear_right_wheel']",574.7849788007269,643.870381586917,574.7849788007269,643.870381586917,6.0569351907934585,-0.9691096305269534,6.0569351907934585,-0.9691096305269534,0.0,0.0,0.0,0.0
1737149575.7900608,10988,1737149653,136744789,,"['front_left_wheel', 'front_right_wheel', 'rear_left_wheel', 'rear_right_wheel']",575.3179890975167,643.779527559055,575.3179890975167,643.779527559055,6.0569351907934585,-0.9691096305269534,6.0569351907934585,-0.9691096305269534,0.0,0.0,0.0,0.0
1737149575.8884292,10989,1737149653,235272048,,"['front_left_wheel', 'front_right_wheel', 'rear_left_wheel', 'rear_right_wheel']",575.9357964869777,643.6886735311932,575.9357964869777,643.6886735311932,6.0569351907934585,-0.9691096305269534,6.0569351907934585,-0.9691096305269534,0.0,0.0,0.0,0.0
1737149575.9985955,10990,1737149653,345780250,,"['front_left_wheel', 'front_right_wheel', 'rear_left_wheel', 'rear_right_wheel']",576.626287098728,643.5735917625682,576.626287098728,643.5735917625682,6.0569351907934585,-0.9691096305269534,6.0569351907934585,-0.9691096305269534,0.0,0.0,0.0,0.0
1737149576.0969667,10991,1737149653,444492578,,"['front_left_wheel', 'front_right_wheel', 'rear_left_wheel', 'rear_right_wheel']",577.0987280436099,643.4948516050879,577.0987280436099,643.4948516050879,6.0569351907934585,-0.9691096305269534,6.0569351907934585,-0.9691096305269534,0.0,0.0,0.0,0.0
1737149576.195954,10992,1737149653,543342189,,"['front_left_wheel', 'front_right_wheel', 'rear_left_wheel', 'rear_right_wheel']",577.7771047849789,643.3918837068444,577.7771047849789,643.3918837068444,6.0569351907934585,-0.9691096305269534,6.0569351907934585,-0.9691096305269534,0.0,0.0,0.0,0.0
1737149576.2956355,10993,1737149653,642649089,,"['front_left_wheel', 'front_right_wheel', 'rear_left_wheel', 'rear_right_wheel']",578.3101150817687,643.2828588734101,578.3101150817687,643.2828588734101,6.0569351907934585,-0.9691096305269534,6.0569351907934585,-0.9691096305269534,0.0,0.0,0.0,0.0
1737149576.3944573,10994,1737149653,741580044,,"['front_left_wheel', 'front_right_wheel', 'rear_left_wheel', 'rear_right_wheel']",578.9279224712296,643.2101756511206,578.9279224712296,643.2101756511206,6.0569351907934585,-0.9691096305269534,6.0569351907934585,-0.9691096305269534,0.0,0.0,0.0,0.0
1737149576.4940882,10995,1737149653,841023533,,"['front_left_wheel', 'front_right_wheel', 'rear_left_wheel', 'rear_right_wheel']",579.6184130829799,643.0950938824955,579.6184130829799,643.0950938824955,6.0569351907934585,-0.9691096305269534,6.0569351907934585,-0.9691096305269534,0.0,0.0,0.0,0.0
1737149576.5928066,10996,1737149653,940119107,,"['front_left_wheel', 'front_right_wheel', 'rear_left_wheel', 'rear_right_wheel']",580.0787401574803,643.0224106602059,580.0787401574803,643.0224106602059,6.0569351907934585,-0.9691096305269534,6.0569351907934585,-0.9691096305269534,0.0,0.0,0.0,0.0
1737149576.691017,10997,1737149654,38479364,,"['front_left_wheel', 'front_right_wheel', 'rear_left_wheel', 'rear_right_wheel']",580.7692307692308,642.9133858267717,580.7692307692308,642.9133858267717,6.0569351907934585,-0.9691096305269534,6.0569351907934585,-0.9691096305269534,0.0,0.0,0.0,0.0
1737149576.7900484,10998,1737149654,137822731,,"['front_left_wheel', 'front_right_wheel', 'rear_left_wheel', 'rear_right_wheel']",581.2295578437311,642.8528164748637,581.2295578437311,642.8528164748637,6.0569351907934585,1.0902483343428224,6.0569351907934585,1.0902483343428224,0.0,0.0,0.0,0.0
1737149576.8894439,10999,1737149654,236974868,,"['front_left_wheel', 'front_right_wheel', 'rear_left_wheel', 'rear_right_wheel']",581.9200484554816,642.9497274379164,581.9200484554816,642.9497274379164,6.0569351907934585,3.997577225923683,6.0569351907934585,3.997577225923683,0.0,0.0,0.0,0.0
1737149576.988113,11000,1737149654,335683731,,"['front_left_wheel', 'front_right_wheel', 'rear_left_wheel', 'rear_right_wheel']",582.5620835857056,643.3494851605088,582.5620835857056,643.3494851605088,4.724409448818898,5.996365838885524,4.724409448818898,5.996365838885524,0.0,0.0,0.0,0.0
1737149577.0979471,11001,1737149654,445200028,,"['front_left_wheel', 'front_right_wheel', 'rear_left_wheel', 'rear_right_wheel']",583.0466384009691,644.0278619018776,583.0466384009691,644.0278619018776,2.4227740763173835,6.0569351907934585,2.4227740763173835,6.0569351907934585,0.0,0.0,0.0,0.0
1737149577.1971335,11002,1737149654,544694759,,"['front_left_wheel', 'front_right_wheel', 'rear_left_wheel', 'rear_right_wheel']",583.2344033918837,644.488188976378,583.2344033918837,644.488188976378,2.301635372501514,6.0569351907934585,2.301635372501514,6.0569351907934585,0.0,0.0,0.0,0.0
1737149577.2956934,11003,1737149654,643195492,,"['front_left_wheel', 'front_right_wheel', 'rear_left_wheel', 'rear_right_wheel']",583.4948516050878,645.1726226529377,583.4948516050878,645.1726226529377,2.301635372501514,6.0569351907934585,2.301635372501514,6.0569351907934585,0.0,0.0,0.0,0.0
1737149577.3947742,11004,1737149654,742288942,,"['front_left_wheel', 'front_right_wheel', 'rear_left_wheel', 'rear_right_wheel']",583.66444579043,645.8570563294973,583.66444579043,645.8570563294973,1.8776499091459722,6.0569351907934585,1.8776499091459722,6.0569351907934585,0.0,0.0,0.0,0.0
1737149577.4945853,11005,1737149654,841948918,,"['front_left_wheel', 'front_right_wheel', 'rear_left_wheel', 'rear_right_wheel']",583.8643246517263,646.3597819503332,583.8643246517263,646.3597819503332,0.9085402786190188,6.0569351907934585,0.9085402786190188,6.0569351907934585,0.0,0.0,0.0,0.0
1737149577.5950418,11006,1737149654,941264864,,"['front_left_wheel', 'front_right_wheel', 'rear_left_wheel', 'rear_right_wheel']",583.961235614779,646.9897032101757,583.961235614779,646.9897032101757,0.7874015748031497,6.0569351907934585,0.7874015748031497,6.0569351907934585,0.0,0.0,0.0,0.0
1737149577.691972,11007,1737149655,39731380,,"['front_left_wheel', 'front_right_wheel', 'rear_left_wheel', 'rear_right_wheel']",584.0278619018777,647.5045427013931,584.0278619018777,647.5045427013931,0.7874015748031497,6.0569351907934585,0.7874015748031497,6.0569351907934585,0.0,0.0,0.0,0.0
1737149577.7908669,11008,1737149655,138581601,,"['front_left_wheel', 'front_right_wheel', 'rear_left_wheel', 'rear_right_wheel']",584.1126589945487,648.037552998183,584.1126589945487,648.037552998183,0.7874015748031497,6.0569351907934585,0.7874015748031497,6.0569351907934585,0.0,0.0,0.0,0.0
1737149577.890051,11009,1737149655,237589101,,"['front_left_wheel', 'front_right_wheel', 'rear_left_wheel', 'rear_right_wheel']",584.1853422168383,648.679588128407,584.1853422168383,648.679588128407,0.7874015748031497,6.0569351907934585,0.7874015748031497,6.0569351907934585,0.0,0.0,0.0,0.0
1737149577.9898033,11010,1737149655,337083156,,"['front_left_wheel', 'front_right_wheel', 'rear_left_wheel', 'rear_right_wheel']",584.2580254391278,649.0975166565718,584.2580254391278,649.0975166565718,0.726832222895215,6.0569351907934585,0.726832222895215,6.0569351907934585,0.0,0.0,0.0,0.0
1737149578.0887187,11011,1737149655,435461331,,"['front_left_wheel', 'front_right_wheel', 'rear_left_wheel', 'rear_right_wheel']",584.3428225317989,649.7698364627498,584.3428225317989,649.7698364627498,0.726832222895215,6.0569351907934585,0.726832222895215,6.0569351907934585,0.0,0.0,0.0,0.0
1737149578.1984556,11012,1737149655,545664584,,"['front_left_wheel', 'front_right_wheel', 'rear_left_wheel', 'rear_right_wheel']",584.42761962447,650.442156268928,584.42761962447,650.442156268928,0.726832222895215,6.0569351907934585,0.726832222895215,6.0569351907934585,0.0,0.0,0.0,0.0
1737149578.2971642,11013,1737149655,644971661,,"['front_left_wheel', 'front_right_wheel', 'rear_left_wheel', 'rear_right_wheel']",584.488188976378,650.9812235009085,584.488188976378,650.9812235009085,0.726832222895215,6.0569351907934585,0.726832222895215,6.0569351907934585,0.0,0.0,0.0,0.0
1737149578.3961818,11014,1737149655,743628412,,"['front_left_wheel', 'front_right_wheel', 'rear_left_wheel', 'rear_right_wheel']",584.5608721986674,651.5384615384615,584.5608721986674,651.5384615384615,0.726832222895215,6.0569351907934585,0.726832222895215,6.0569351907934585,0.0,0.0,0.0,0.0
1737149578.4951308,11015,1737149655,842823484,,"['front_left_wheel', 'front_right_wheel', 'rear_left_wheel', 'rear_right_wheel']",584.633555420957,652.1138703815869,584.633555420957,652.1138703815869,0.726832222895215,6.0569351907934585,0.726832222895215,6.0569351907934585,0.0,0.0,0.0,0.0
1737149578.5944357,11016,1737149655,942028781,,"['front_left_wheel', 'front_right_wheel', 'rear_left_wheel', 'rear_right_wheel']",584.7001817080558,652.6165960024227,584.7001817080558,652.6165960024227,0.726832222895215,6.0569351907934585,0.726832222895215,6.0569351907934585,0.0,0.0,0.0,0.0
1737149578.6939502,11017,1737149656,40809616,,"['front_left_wheel', 'front_right_wheel', 'rear_left_wheel', 'rear_right_wheel']",584.7849788007269,653.2828588734101,584.7849788007269,653.2828588734101,0.726832222895215,6.0569351907934585,0.726832222895215,6.0569351907934585,0.0,0.0,0.0,0.0
1737149578.7917008,11018,1737149656,139222999,,"['front_left_wheel', 'front_right_wheel', 'rear_left_wheel', 'rear_right_wheel']",584.839491217444,653.7371290127196,584.839491217444,653.7371290127196,0.726832222895215,6.0569351907934585,0.726832222895215,6.0569351907934585,0.0,0.0,0.0,0.0
1737149578.89141,11019,1737149656,238945501,,"['front_left_wheel', 'front_right_wheel', 'rear_left_wheel', 'rear_right_wheel']",584.9242883101151,654.4033918837068,584.9242883101151,654.4033918837068,0.726832222895215,6.0569351907934585,0.726832222895215,6.0569351907934585,0.0,0.0,0.0,0.0
1737149578.9905066,11020,1737149656,337894014,,"['front_left_wheel', 'front_right_wheel', 'rear_left_wheel', 'rear_right_wheel']",584.984857662023,655.0272562083586,584.984857662023,655.0272562083586,0.9085402786190188,6.0569351907934585,0.9085402786190188,6.0569351907934585,0.0,0.0,0.0,0.0
1737149579.08878,11021,1737149656,436595536,,"['front_left_wheel', 'front_right_wheel', 'rear_left_wheel', 'rear_right_wheel']",585.0878255602665,655.487583282859,585.0878255602665,655.487583282859,1.029678982434888,6.0569351907934585,1.029678982434888,6.0569351907934585,0.0,0.0,0.0,0.0
1737149579.188178,11022,1737149656,535746135,,"['front_left_wheel', 'front_right_wheel', 'rear_left_wheel', 'rear_right_wheel']",585.2029073288916,656.1599030890369,585.2029073288916,656.1599030890369,1.029678982434888,6.0569351907934585,1.029678982434888,6.0569351907934585,0.0,0.0,0.0,0.0
1737149579.301513,11023,1737149656,645539508,,"['front_left_wheel', 'front_right_wheel', 'rear_left_wheel', 'rear_right_wheel']",585.3119321623259,656.8503937007874,585.3119321623259,656.8503937007874,1.029678982434888,6.0569351907934585,1.029678982434888,6.0569351907934585,0.0,0.0,0.0,0.0
1737149579.397176,11024,1737149656,744600610,,"['front_left_wheel', 'front_right_wheel', 'rear_left_wheel', 'rear_right_wheel']",585.4149000605694,657.3288915808602,585.4149000605694,657.3288915808602,1.9987886129618415,6.0569351907934585,1.9987886129618415,6.0569351907934585,0.0,0.0,0.0,0.0
1737149579.4961586,11025,1737149656,844011539,,"['front_left_wheel', 'front_right_wheel', 'rear_left_wheel', 'rear_right_wheel']",585.6390066626287,657.9830405814657,585.6390066626287,657.9830405814657,1.9987886129618415,6.0569351907934585,1.9987886129618415,6.0569351907934585,0.0,0.0,0.0,0.0
1737149579.5947156,11026,1737149656,942469731,,"['front_left_wheel', 'front_right_wheel', 'rear_left_wheel', 'rear_right_wheel']",585.808600847971,658.5099939430648,585.808600847971,658.5099939430648,1.9987886129618415,6.0569351907934585,1.9987886129618415,6.0569351907934585,0.0,0.0,0.0,0.0
1737149579.6944995,11027,1737149657,41684244,,"['front_left_wheel', 'front_right_wheel', 'rear_left_wheel', 'rear_right_wheel']",586.0205935796487,659.1156874621441,586.0205935796487,659.1156874621441,1.9987886129618415,6.0569351907934585,1.9987886129618415,6.0569351907934585,0.0,0.0,0.0,0.0
1737149579.7942395,11028,1737149657,140921402,,"['front_left_wheel', 'front_right_wheel', 'rear_left_wheel', 'rear_right_wheel']",586.1962447001818,659.8001211387038,586.1962447001818,659.8001211387038,1.3325257419745609,6.0569351907934585,1.3325257419745609,6.0569351907934585,0.0,0.0,0.0,0.0
1737149579.891616,11029,1737149657,239196403,,"['front_left_wheel', 'front_right_wheel', 'rear_left_wheel', 'rear_right_wheel']",586.3052695336161,660.2543912780133,586.3052695336161,660.2543912780133,0.30284675953967294,6.0569351907934585,0.30284675953967294,6.0569351907934585,0.0,0.0,0.0,0.0
1737149579.9913406,11030,1737149657,338889706,,"['front_left_wheel', 'front_right_wheel', 'rear_left_wheel', 'rear_right_wheel']",586.3234403391884,660.938824954573,586.3234403391884,660.938824954573,-0.30284675953967294,6.0569351907934585,-0.30284675953967294,6.0569351907934585,0.0,0.0,0.0,0.0
1737149580.0900633,11031,1737149657,437504632,,"['front_left_wheel', 'front_right_wheel', 'rear_left_wheel', 'rear_right_wheel']",586.2992125984252,661.4476075105996,586.2992125984252,661.4476075105996,-0.30284675953967294,6.0569351907934585,-0.30284675953967294,6.0569351907934585,0.0,0.0,0.0,0.0
1737149580.189138,11032,1737149657,536182778,,"['front_left_wheel', 'front_right_wheel', 'rear_left_wheel', 'rear_right_wheel']",586.2628709872805,662.1441550575408,586.2628709872805,662.1441550575408,-0.30284675953967294,6.0569351907934585,-0.30284675953967294,6.0569351907934585,0.0,0.0,0.0,0.0
1737149580.2880282,11033,1737149657,635186367,,"['front_left_wheel', 'front_right_wheel', 'rear_left_wheel', 'rear_right_wheel']",586.2325863113265,662.7437916414294,586.2325863113265,662.7437916414294,-0.30284675953967294,6.0569351907934585,-0.30284675953967294,6.0569351907934585,0.0,0.0,0.0,0.0
1737149580.3982563,11034,1737149657,745658766,,"['front_left_wheel', 'front_right_wheel', 'rear_left_wheel', 'rear_right_wheel']",586.244700181708,663.4039975772259,586.244700181708,663.4039975772259,1.150817686250757,6.0569351907934585,1.150817686250757,6.0569351907934585,0.0,0.0,0.0,0.0
1737149580.497247,11035,1737149657,845170188,,"['front_left_wheel', 'front_right_wheel', 'rear_left_wheel', 'rear_right_wheel']",586.3840096910963,663.8340399757723,586.3840096910963,663.8340399757723,1.8776499091459722,6.0569351907934585,1.8776499091459722,6.0569351907934585,0.0,0.0,0.0,0.0
1737149580.595635,11036,1737149657,943274998,,"['front_left_wheel', 'front_right_wheel', 'rear_left_wheel', 'rear_right_wheel']",586.5960024227741,664.5003028467596,586.5960024227741,664.5003028467596,1.8776499091459722,6.0569351907934585,1.8776499091459722,6.0569351907934585,0.0,0.0,0.0,0.0
1737149580.6947083,11037,1737149658,42554958,,"['front_left_wheel', 'front_right_wheel', 'rear_left_wheel', 'rear_right_wheel']",586.7655966081163,664.9364021804968,586.7655966081163,664.9364021804968,3.634161114476075,6.0569351907934585,3.634161114476075,6.0569351907934585,0.0,0.0,0.0,0.0
1737149580.795251,11038,1737149658,142104136,,"['front_left_wheel', 'front_right_wheel', 'rear_left_wheel', 'rear_right_wheel']",587.1956390066626,665.6329497274379,587.1956390066626,665.6329497274379,4.724409448818898,6.0569351907934585,4.724409448818898,6.0569351907934585,0.0,0.0,0.0,0.0
1737149580.8932087,11039,1737149658,240534898,,"['front_left_wheel', 'front_right_wheel', 'rear_left_wheel', 'rear_right_wheel']",587.5590551181102,666.3052695336161,587.5590551181102,666.3052695336161,5.027256208358571,6.0569351907934585,5.027256208358571,6.0569351907934585,0.0,0.0,0.0,0.0
1737149580.991377,11040,1737149658,339062543,,"['front_left_wheel', 'front_right_wheel', 'rear_left_wheel', 'rear_right_wheel']",588.152634766808,666.8261659600242,588.152634766808,666.8261659600242,5.027256208358571,6.0569351907934585,5.027256208358571,6.0569351907934585,0.0,0.0,0.0,0.0
1737149581.091228,11041,1737149658,438839617,,"['front_left_wheel', 'front_right_wheel', 'rear_left_wheel', 'rear_right_wheel']",588.7038158691702,667.4560872198667,588.7038158691702,667.4560872198667,5.027256208358571,6.0569351907934585,5.027256208358571,6.0569351907934585,0.0,0.0,0.0,0.0
1737149581.1903923,11042,1737149658,537836465,,"['front_left_wheel', 'front_right_wheel', 'rear_left_wheel', 'rear_right_wheel']",589.0854027861901,667.9164142943671,589.0854027861901,667.9164142943671,5.027256208358571,6.0569351907934585,5.027256208358571,6.0569351907934585,0.0,0.0,0.0,0.0
1737149581.2889829,11043,1737149658,636653429,,"['front_left_wheel', 'front_right_wheel', 'rear_left_wheel', 'rear_right_wheel']",589.6608116293155,668.6069049061175,589.6608116293155,668.6069049061175,5.027256208358571,6.0569351907934585,5.027256208358571,6.0569351907934585,0.0,0.0,0.0,0.0
1737149581.3879254,11044,1737149658,735708128,,"['front_left_wheel', 'front_right_wheel', 'rear_left_wheel', 'rear_right_wheel']",590.0423985463356,669.297395517868,590.0423985463356,669.297395517868,5.027256208358571,6.0569351907934585,5.027256208358571,6.0569351907934585,0.0,0.0,0.0,0.0
1737149581.4982083,11045,1737149658,845643734,,"['front_left_wheel', 'front_right_wheel', 'rear_left_wheel', 'rear_right_wheel']",590.6238643246518,669.9878861296183,590.6238643246518,669.9878861296183,5.027256208358571,6.0569351907934585,5.027256208358571,6.0569351907934585,0.0,0.0,0.0,0.0
1737149581.5968046,11046,1737149658,944569871,,"['front_left_wheel', 'front_right_wheel', 'rear_left_wheel', 'rear_right_wheel']",591.2235009085404,670.526953361599,591.2235009085404,670.526953361599,5.027256208358571,6.0569351907934585,5.027256208358571,6.0569351907934585,0.0,0.0,0.0,0.0
1737149581.6956441,11047,1737149659,43734195,,"['front_left_wheel', 'front_right_wheel', 'rear_left_wheel', 'rear_right_wheel']",591.7322834645669,671.1387038158692,591.7322834645669,671.1387038158692,3.815869170199879,6.0569351907934585,3.815869170199879,6.0569351907934585,0.0,0.0,0.0,0.0
1737149581.7952764,11048,1737149659,142395913,,"['front_left_wheel', 'front_right_wheel', 'rear_left_wheel', 'rear_right_wheel']",592.0290732889158,671.7201695941853,592.0290732889158,671.7201695941853,1.6959418534221686,5.996365838885524,1.6959418534221686,5.996365838885524,0.0,0.0,0.0,0.0
1737149581.8943992,11049,1737149659,242017525,,"['front_left_wheel', 'front_right_wheel', 'rear_left_wheel', 'rear_right_wheel']",592.1865536038764,672.2834645669292,592.1865536038764,672.2834645669292,0.8479709267110843,5.996365838885524,0.8479709267110843,5.996365838885524,0.0,0.0,0.0,0.0
1737149581.9937797,11050,1737149659,340491286,,"['front_left_wheel', 'front_right_wheel', 'rear_left_wheel', 'rear_right_wheel']",592.2713506965476,672.9678982434888,592.2713506965476,672.9678982434888,0.8479709267110843,5.996365838885524,0.8479709267110843,5.996365838885524,0.0,0.0,0.0,0.0
1737149582.093255,11051,1737149659,439788551,,"['front_left_wheel', 'front_right_wheel', 'rear_left_wheel', 'rear_right_wheel']",592.3500908540278,673.4827377347062,592.3500908540278,673.4827377347062,0.8479709267110843,5.996365838885524,0.8479709267110843,5.996365838885524,0.0,0.0,0.0,0.0
1737149582.1915965,11052,1737149659,538525604,,"['front_left_wheel', 'front_right_wheel', 'rear_left_wheel', 'rear_right_wheel']",592.4409448818898,674.1005451241672,592.4409448818898,674.1005451241672,0.8479709267110843,5.996365838885524,0.8479709267110843,5.996365838885524,0.0,0.0,0.0,0.0
1737149582.2895627,11053,1737149659,637293224,,"['front_left_wheel', 'front_right_wheel', 'rear_left_wheel', 'rear_right_wheel']",592.5196850393701,674.663840096911,592.5196850393701,674.663840096911,0.8479709267110843,5.996365838885524,0.8479709267110843,5.996365838885524,0.0,0.0,0.0,0.0
1737149582.3888,11054,1737149659,736233099,,"['front_left_wheel', 'front_right_wheel', 'rear_left_wheel', 'rear_right_wheel']",592.6044821320412,675.2271350696548,592.6044821320412,675.2271350696548,0.8479709267110843,5.996365838885524,0.8479709267110843,5.996365838885524,0.0,0.0,0.0,0.0
1737149582.4892058,11055,1737149659,835742993,,"['front_left_wheel', 'front_right_wheel', 'rear_left_wheel', 'rear_right_wheel']",592.6892792247123,675.9055118110236,592.6892792247123,675.9055118110236,0.8479709267110843,5.996365838885524,0.8479709267110843,5.996365838885524,0.0,0.0,0.0,0.0
1737149582.5981815,11056,1737149659,945642902,,"['front_left_wheel', 'front_right_wheel', 'rear_left_wheel', 'rear_right_wheel']",592.786190187765,676.5354330708661,592.786190187765,676.5354330708661,0.8479709267110843,5.996365838885524,0.8479709267110843,5.996365838885524,0.0,0.0,0.0,0.0
1737149582.6961975,11057,1737149660,44353565,,"['front_left_wheel', 'front_right_wheel', 'rear_left_wheel', 'rear_right_wheel']",592.8649303452454,677.0442156268928,592.8649303452454,677.0442156268928,0.8479709267110843,5.996365838885524,0.8479709267110843,5.996365838885524,0.0,0.0,0.0,0.0
1737149582.7959805,11058,1737149660,143412520,,"['front_left_wheel', 'front_right_wheel', 'rear_left_wheel', 'rear_right_wheel']",592.961841308298,677.7165354330709,592.961841308298,677.7165354330709,0.8479709267110843,5.996365838885524,0.8479709267110843,5.996365838885524,0.0,0.0,0.0,0.0
1737149582.8945503,11059,1737149660,242612609,,"['front_left_wheel', 'front_right_wheel', 'rear_left_wheel', 'rear_right_wheel']",593.0284675953968,678.2132041187159,593.0284675953968,678.2132041187159,1.029678982434888,6.0569351907934585,1.029678982434888,6.0569351907934585,0.0,0.0,0.0,0.0
1737149582.9942303,11060,1737149660,341501753,,"['front_left_wheel', 'front_right_wheel', 'rear_left_wheel', 'rear_right_wheel']",593.1435493640219,678.8612961841309,593.1435493640219,678.8612961841309,1.029678982434888,6.0569351907934585,1.029678982434888,6.0569351907934585,0.0,0.0,0.0,0.0
1737149583.0942876,11061,1737149660,441224173,,"['front_left_wheel', 'front_right_wheel', 'rear_left_wheel', 'rear_right_wheel']",593.2465172622652,679.4912174439734,593.2465172622652,679.4912174439734,1.0902483343428224,6.0569351907934585,1.0902483343428224,6.0569351907934585,0.0,0.0,0.0,0.0
1737149583.192798,11062,1737149660,539822830,,"['front_left_wheel', 'front_right_wheel', 'rear_left_wheel', 'rear_right_wheel']",593.343428225318,679.9757722592368,593.343428225318,679.9757722592368,1.0902483343428224,6.0569351907934585,1.0902483343428224,6.0569351907934585,0.0,0.0,0.0,0.0
1737149583.29095,11063,1737149660,638285341,,"['front_left_wheel', 'front_right_wheel', 'rear_left_wheel', 'rear_right_wheel']",593.4706238643247,680.6420351302241,593.4706238643247,680.6420351302241,1.0902483343428224,6.0569351907934585,1.0902483343428224,6.0569351907934585,0.0,0.0,0.0,0.0
1737149583.3900843,11064,1737149660,737555766,,"['front_left_wheel', 'front_right_wheel', 'rear_left_wheel', 'rear_right_wheel']",593.5554209569957,681.1387038158692,593.5554209569957,681.1387038158692,1.0902483343428224,6.0569351907934585,1.0902483343428224,6.0569351907934585,0.0,0.0,0.0,0.0
1737149583.4888332,11065,1737149660,836876057,,"['front_left_wheel', 'front_right_wheel', 'rear_left_wheel', 'rear_right_wheel']",593.6765596608117,681.7807389460933,593.6765596608117,681.7807389460933,1.0902483343428224,6.0569351907934585,1.0902483343428224,6.0569351907934585,0.0,0.0,0.0,0.0
1737149583.5873597,11066,1737149660,935428922,,"['front_left_wheel', 'front_right_wheel', 'rear_left_wheel', 'rear_right_wheel']",593.7734706238643,682.4530587522714,593.7734706238643,682.4530587522714,1.150817686250757,6.0569351907934585,1.150817686250757,6.0569351907934585,0.0,0.0,0.0,0.0
1737149583.6978204,11067,1737149661,45785501,,"['front_left_wheel', 'front_right_wheel', 'rear_left_wheel', 'rear_right_wheel']",593.9127801332527,683.0224106602059,593.9127801332527,683.0224106602059,1.3325257419745609,6.0569351907934585,1.3325257419745609,6.0569351907934585,0.0,0.0,0.0,0.0
1737149583.796646,11068,1737149661,144299013,,"['front_left_wheel', 'front_right_wheel', 'rear_left_wheel', 'rear_right_wheel']",594.0520896426409,683.5978195033313,594.0520896426409,683.5978195033313,1.3325257419745609,6.0569351907934585,1.3325257419745609,6.0569351907934585,0.0,0.0,0.0,0.0
1737149583.896301,11069,1737149661,244120026,,"['front_left_wheel', 'front_right_wheel', 'rear_left_wheel', 'rear_right_wheel']",594.1792852816475,684.282253179891,594.1792852816475,684.282253179891,1.3325257419745609,6.0569351907934585,1.3325257419745609,6.0569351907934585,0.0,0.0,0.0,0.0
1737149583.9948509,11070,1737149661,342638603,,"['front_left_wheel', 'front_right_wheel', 'rear_left_wheel', 'rear_right_wheel']",594.3004239854633,684.7365233192005,594.3004239854633,684.7365233192005,1.3325257419745609,6.0569351907934585,1.3325257419745609,6.0569351907934585,0.0,0.0,0.0,0.0
1737149584.0942726,11071,1737149661,442154948,,"['front_left_wheel', 'front_right_wheel', 'rear_left_wheel', 'rear_right_wheel']",594.4518473652332,685.4209569957601,594.4518473652332,685.4209569957601,1.3325257419745609,6.0569351907934585,1.3325257419745609,6.0569351907934585,0.0,0.0,0.0,0.0
1737149584.192725,11072,1737149661,540274660,,"['front_left_wheel', 'front_right_wheel', 'rear_left_wheel', 'rear_right_wheel']",594.5729860690491,686.0024227740763,594.5729860690491,686.0024227740763,1.3325257419745609,6.0569351907934585,1.3325257419745609,6.0569351907934585,0.0,0.0,0.0,0.0
1737149584.2923555,11073,1737149661,639980370,,"['front_left_wheel', 'front_right_wheel', 'rear_left_wheel', 'rear_right_wheel']",594.7062386432466,686.5717746820109,594.7062386432466,686.5717746820109,1.3325257419745609,6.0569351907934585,1.3325257419745609,6.0569351907934585,0.0,0.0,0.0,0.0
