Time,header.seq,header.stamp.secs,header.stamp.nsecs,header.frame_id,name,position_0,position_1,position_2,position_3,velocity_0,velocity_1,velocity_2,velocity_3,effort_0,effort_1,effort_2,effort_3
1737149440.257315,9627,1737149517,44171987,,"['front_left_wheel', 'front_right_wheel', 'rear_left_wheel', 'rear_right_wheel']",390.93276801938225,391.8655360387644,390.93276801938225,391.8655360387644,0.0,0.0,0.0,0.0,0.0,0.0,0.0,0.0
1737149440.2576427,9628,1737149517,142919689,,"['front_left_wheel', 'front_right_wheel', 'rear_left_wheel', 'rear_right_wheel']",390.93276801938225,391.8655360387644,390.93276801938225,391.8655360387644,0.0,0.0,0.0,0.0,0.0,0.0,0.0,0.0
1737149440.257963,9629,1737149517,242110060,,"['front_left_wheel', 'front_right_wheel', 'rear_left_wheel', 'rear_right_wheel']",390.93276801938225,391.8655360387644,390.93276801938225,391.8655360387644,0.0,0.0,0.0,0.0,0.0,0.0,0.0,0.0
1737149440.2584534,9630,1737149517,341154571,,"['front_left_wheel', 'front_right_wheel', 'rear_left_wheel', 'rear_right_wheel']",390.93276801938225,391.8655360387644,390.93276801938225,391.8655360387644,0.0,0.0,0.0,0.0,0.0,0.0,0.0,0.0
1737149440.2589228,9631,1737149517,440746251,,"['front_left_wheel', 'front_right_wheel', 'rear_left_wheel', 'rear_right_wheel']",390.93276801938225,391.8655360387644,390.93276801938225,391.8655360387644,0.0,0.0,0.0,0.0,0.0,0.0,0.0,0.0
1737149440.2594934,9632,1737149517,539889802,,"['front_left_wheel', 'front_right_wheel', 'rear_left_wheel', 'rear_right_wheel']",390.93276801938225,391.8655360387644,390.93276801938225,391.8655360387644,0.0,0.0,0.0,0.0,0.0,0.0,0.0,0.0
1737149440.29642,9633,1737149517,638410845,,"['front_left_wheel', 'front_right_wheel', 'rear_left_wheel', 'rear_right_wheel']",390.93276801938225,391.8655360387644,390.93276801938225,391.8655360387644,0.0,0.0,0.0,0.0,0.0,0.0,0.0,0.0
1737149440.3957937,9634,1737149517,737851986,,"['front_left_wheel', 'front_right_wheel', 'rear_left_wheel', 'rear_right_wheel']",390.93276801938225,391.8655360387644,390.93276801938225,391.8655360387644,0.0,0.0,0.0,0.0,0.0,0.0,0.0,0.0
1737149440.4943259,9635,1737149517,836331708,,"['front_left_wheel', 'front_right_wheel', 'rear_left_wheel', 'rear_right_wheel']",390.93276801938225,391.8655360387644,390.93276801938225,391.8655360387644,0.0,0.0,0.0,0.0,0.0,0.0,0.0,0.0
1737149440.5933914,9636,1737149517,935649218,,"['front_left_wheel', 'front_right_wheel', 'rear_left_wheel', 'rear_right_wheel']",390.93276801938225,391.8655360387644,390.93276801938225,391.8655360387644,0.0,0.0,0.0,0.0,0.0,0.0,0.0,0.0
1737149440.7030475,9637,1737149518,45408948,,"['front_left_wheel', 'front_right_wheel', 'rear_left_wheel', 'rear_right_wheel']",390.93276801938225,391.8655360387644,390.93276801938225,391.8655360387644,0.0,0.0,0.0,0.0,0.0,0.0,0.0,0.0
1737149440.802679,9638,1737149518,144622549,,"['front_left_wheel', 'front_right_wheel', 'rear_left_wheel', 'rear_right_wheel']",390.93276801938225,391.8655360387644,390.93276801938225,391.8655360387644,0.0,0.0,0.0,0.0,0.0,0.0,0.0,0.0
1737149440.9014575,9639,1737149518,243483390,,"['front_left_wheel', 'front_right_wheel', 'rear_left_wheel', 'rear_right_wheel']",390.93276801938225,391.8655360387644,390.93276801938225,391.8655360387644,0.0,0.0,0.0,0.0,0.0,0.0,0.0,0.0
1737149441.0005605,9640,1737149518,342563854,,"['front_left_wheel', 'front_right_wheel', 'rear_left_wheel', 'rear_right_wheel']",390.93276801938225,391.8655360387644,390.93276801938225,391.8655360387644,0.0,0.0,0.0,0.0,0.0,0.0,0.0,0.0
1737149441.0997546,9641,1737149518,441130086,,"['front_left_wheel', 'front_right_wheel', 'rear_left_wheel', 'rear_right_wheel']",390.93276801938225,391.8655360387644,390.93276801938225,391.8655360387644,0.0,0.0,0.0,0.0,0.0,0.0,0.0,0.0
1737149441.1988907,9642,1737149518,540183879,,"['front_left_wheel', 'front_right_wheel', 'rear_left_wheel', 'rear_right_wheel']",390.93276801938225,391.8655360387644,390.93276801938225,391.8655360387644,0.0,0.0,0.0,0.0,0.0,0.0,0.0,0.0
1737149441.2968202,9643,1737149518,639103050,,"['front_left_wheel', 'front_right_wheel', 'rear_left_wheel', 'rear_right_wheel']",390.93276801938225,391.8655360387644,390.93276801938225,391.8655360387644,0.0,0.0,0.0,0.0,0.0,0.0,0.0,0.0
1737149441.3968124,9644,1737149518,738900193,,"['front_left_wheel', 'front_right_wheel', 'rear_left_wheel', 'rear_right_wheel']",390.93276801938225,391.8655360387644,390.93276801938225,391.8655360387644,0.0,0.0,0.0,0.0,0.0,0.0,0.0,0.0
1737149441.4958797,9645,1737149518,837775265,,"['front_left_wheel', 'front_right_wheel', 'rear_left_wheel', 'rear_right_wheel']",390.93276801938225,391.8655360387644,390.93276801938225,391.8655360387644,0.0,0.0,0.0,0.0,0.0,0.0,0.0,0.0
1737149441.594582,9646,1737149518,936794820,,"['front_left_wheel', 'front_right_wheel', 'rear_left_wheel', 'rear_right_wheel']",390.93276801938225,391.8655360387644,390.93276801938225,391.8655360387644,0.0,0.0,0.0,0.0,0.0,0.0,0.0,0.0
1737149441.6935,9647,1737149519,35570515,,"['front_left_wheel', 'front_right_wheel', 'rear_left_wheel', 'rear_right_wheel']",390.93276801938225,391.8655360387644,390.93276801938225,391.8655360387644,0.0,0.0,0.0,0.0,0.0,0.0,0.0,0.0
1737149441.8035302,9648,1737149519,145931276,,"['front_left_wheel', 'front_right_wheel', 'rear_left_wheel', 'rear_right_wheel']",390.93276801938225,391.8655360387644,390.93276801938225,391.8655360387644,0.0,0.0,0.0,0.0,0.0,0.0,0.0,0.0
1737149441.902344,9649,1737149519,244329307,,"['front_left_wheel', 'front_right_wheel', 'rear_left_wheel', 'rear_right_wheel']",390.93276801938225,391.8655360387644,390.93276801938225,391.8655360387644,0.0,0.0,0.0,0.0,0.0,0.0,0.0,0.0
1737149442.0015807,9650,1737149519,343610568,,"['front_left_wheel', 'front_right_wheel', 'rear_left_wheel', 'rear_right_wheel']",390.93276801938225,391.8655360387644,390.93276801938225,391.8655360387644,0.0,0.0,0.0,0.0,0.0,0.0,0.0,0.0
1737149442.1000783,9651,1737149519,442083644,,"['front_left_wheel', 'front_right_wheel', 'rear_left_wheel', 'rear_right_wheel']",390.93276801938225,391.8655360387644,390.93276801938225,391.8655360387644,0.0,0.0,0.0,0.0,0.0,0.0,0.0,0.0
1737149442.2035358,9652,1737149519,540977850,,"['front_left_wheel', 'front_right_wheel', 'rear_left_wheel', 'rear_right_wheel']",390.9448818897638,391.87159297395516,390.9448818897638,391.87159297395516,0.6662628709872804,0.6662628709872804,0.6662628709872804,0.6662628709872804,0.0,0.0,0.0,0.0
1737149442.2994888,9653,1737149519,639886956,,"['front_left_wheel', 'front_right_wheel', 'rear_left_wheel', 'rear_right_wheel']",391.0478497880073,391.95639006662634,391.0478497880073,391.95639006662634,2.483343428225318,2.483343428225318,2.483343428225318,2.483343428225318,0.0,0.0,0.0,0.0
1737149442.3972726,9654,1737149519,738961089,,"['front_left_wheel', 'front_right_wheel', 'rear_left_wheel', 'rear_right_wheel']",391.2961841308298,392.27740763173836,391.2961841308298,392.27740763173836,4.300423985463356,4.300423985463356,4.300423985463356,4.300423985463356,0.0,0.0,0.0,0.0
1737149442.4958272,9655,1737149519,837959763,,"['front_left_wheel', 'front_right_wheel', 'rear_left_wheel', 'rear_right_wheel']",391.6898849182314,392.6165960024228,391.6898849182314,392.6165960024228,4.118715929739552,6.0569351907934585,4.118715929739552,6.0569351907934585,0.0,0.0,0.0,0.0
1737149442.596066,9656,1737149519,937932285,,"['front_left_wheel', 'front_right_wheel', 'rear_left_wheel', 'rear_right_wheel']",392.1259842519685,393.26468806783765,392.1259842519685,393.26468806783765,1.9987886129618415,6.0569351907934585,1.9987886129618415,6.0569351907934585,0.0,0.0,0.0,0.0
1737149442.6937447,9657,1737149520,36363073,,"['front_left_wheel', 'front_right_wheel', 'rear_left_wheel', 'rear_right_wheel']",392.2895215021199,393.725015142338,392.2895215021199,393.725015142338,1.8170805572380375,6.0569351907934585,1.8170805572380375,6.0569351907934585,0.0,0.0,0.0,0.0
1737149442.7932613,9658,1737149520,135698147,,"['front_left_wheel', 'front_right_wheel', 'rear_left_wheel', 'rear_right_wheel']",392.4894003634161,394.41550575408843,392.4894003634161,394.41550575408843,1.5748031496062993,6.0569351907934585,1.5748031496062993,6.0569351907934585,0.0,0.0,0.0,0.0
1737149442.9033065,9659,1737149520,245708644,,"['front_left_wheel', 'front_right_wheel', 'rear_left_wheel', 'rear_right_wheel']",392.6711084191399,395.1241671714113,392.6711084191399,395.1241671714113,1.5748031496062993,6.0569351907934585,1.5748031496062993,6.0569351907934585,0.0,0.0,0.0,0.0
1737149443.0025127,9660,1737149520,344585380,,"['front_left_wheel', 'front_right_wheel', 'rear_left_wheel', 'rear_right_wheel']",392.7983040581466,395.79043004239855,392.7983040581466,395.79043004239855,1.6959418534221686,6.0569351907934585,1.6959418534221686,6.0569351907934585,0.0,0.0,0.0,0.0
1737149443.1010735,9661,1737149520,443576086,,"['front_left_wheel', 'front_right_wheel', 'rear_left_wheel', 'rear_right_wheel']",392.99212598425197,396.2507571168989,392.99212598425197,396.2507571168989,1.8170805572380375,6.0569351907934585,1.8170805572380375,6.0569351907934585,0.0,0.0,0.0,0.0
1737149443.2001681,9662,1737149520,542347265,,"['front_left_wheel', 'front_right_wheel', 'rear_left_wheel', 'rear_right_wheel']",393.2041187159298,396.9412477286493,393.2041187159298,396.9412477286493,1.8776499091459722,6.0569351907934585,1.8776499091459722,6.0569351907934585,0.0,0.0,0.0,0.0
1737149443.2994456,9663,1737149520,641315793,,"['front_left_wheel', 'front_right_wheel', 'rear_left_wheel', 'rear_right_wheel']",393.35554209569955,397.40157480314963,393.35554209569955,397.40157480314963,2.2410660205935797,5.996365838885524,2.2410660205935797,5.996365838885524,0.0,0.0,0.0,0.0
1737149443.3973913,9664,1737149520,739893936,,"['front_left_wheel', 'front_right_wheel', 'rear_left_wheel', 'rear_right_wheel']",393.6402180496668,398.1041792852817,393.6402180496668,398.1041792852817,2.8467595396729255,6.0569351907934585,2.8467595396729255,6.0569351907934585,0.0,0.0,0.0,0.0
1737149443.4974966,9665,1737149520,839810969,,"['front_left_wheel', 'front_right_wheel', 'rear_left_wheel', 'rear_right_wheel']",393.87038158691706,398.7764990914597,393.87038158691706,398.7764990914597,3.089036947304664,6.0569351907934585,3.089036947304664,6.0569351907934585,0.0,0.0,0.0,0.0
1737149443.5968826,9666,1737149520,938808140,,"['front_left_wheel', 'front_right_wheel', 'rear_left_wheel', 'rear_right_wheel']",394.22774076317387,399.297395517868,394.22774076317387,399.297395517868,3.0284675953967293,6.0569351907934585,3.0284675953967293,6.0569351907934585,0.0,0.0,0.0,0.0
1737149443.6951864,9667,1737149521,37391952,,"['front_left_wheel', 'front_right_wheel', 'rear_left_wheel', 'rear_right_wheel']",394.5245305875227,399.92731677771053,394.5245305875227,399.92731677771053,1.9382192610539069,6.0569351907934585,1.9382192610539069,6.0569351907934585,0.0,0.0,0.0,0.0
1737149443.7946315,9668,1737149521,136485143,,"['front_left_wheel', 'front_right_wheel', 'rear_left_wheel', 'rear_right_wheel']",394.6517262265294,400.5027256208359,394.6517262265294,400.5027256208359,-0.18170805572380375,6.0569351907934585,-0.18170805572380375,6.0569351907934585,0.0,0.0,0.0,0.0
1737149443.89405,9669,1737149521,235545119,,"['front_left_wheel', 'front_right_wheel', 'rear_left_wheel', 'rear_right_wheel']",394.6214415505754,401.0660205935796,394.6214415505754,401.0660205935796,-2.180496668685645,5.572380375529982,-2.180496668685645,5.572380375529982,0.0,0.0,0.0,0.0
1737149444.0030308,9670,1737149521,345328234,,"['front_left_wheel', 'front_right_wheel', 'rear_left_wheel', 'rear_right_wheel']",394.4336765596608,401.62931556632344,394.4336765596608,401.62931556632344,-1.3325257419745609,2.483343428225318,-1.3325257419745609,2.483343428225318,0.0,0.0,0.0,0.0
1737149444.101764,9671,1737149521,444099406,,"['front_left_wheel', 'front_right_wheel', 'rear_left_wheel', 'rear_right_wheel']",394.31859479103576,401.8897637795276,394.31859479103576,401.8897637795276,-1.3930950938824955,2.4227740763173835,-1.3930950938824955,2.4227740763173835,0.0,0.0,0.0,0.0
1737149444.2011757,9672,1737149521,543423913,,"['front_left_wheel', 'front_right_wheel', 'rear_left_wheel', 'rear_right_wheel']",394.15505754088434,402.16838279830404,394.15505754088434,402.16838279830404,-1.3930950938824955,2.4227740763173835,-1.3930950938824955,2.4227740763173835,0.0,0.0,0.0,0.0
1737149444.3001986,9673,1737149521,642672305,,"['front_left_wheel', 'front_right_wheel', 'rear_left_wheel', 'rear_right_wheel']",394.0096910963053,402.4106602059358,394.0096910963053,402.4106602059358,-1.3930950938824955,2.4227740763173835,-1.3930950938824955,2.4227740763173835,0.0,0.0,0.0,0.0
1737149444.3996036,9674,1737149521,740865011,,"['front_left_wheel', 'front_right_wheel', 'rear_left_wheel', 'rear_right_wheel']",393.88855239248943,402.65293761356753,393.88855239248943,402.65293761356753,-1.2719563900666262,2.5439127801332524,-1.2719563900666262,2.5439127801332524,0.0,0.0,0.0,0.0
1737149444.4986675,9675,1737149521,841008999,,"['front_left_wheel', 'front_right_wheel', 'rear_left_wheel', 'rear_right_wheel']",393.7613567534828,402.8891580860085,393.7613567534828,402.8891580860085,-1.2719563900666262,2.5439127801332524,-1.2719563900666262,2.5439127801332524,0.0,0.0,0.0,0.0
1737149444.597704,9676,1737149521,939441741,,"['front_left_wheel', 'front_right_wheel', 'rear_left_wheel', 'rear_right_wheel']",393.64627498485765,403.167777104785,393.64627498485765,403.167777104785,-1.0902483343428224,2.7256208358570566,-1.0902483343428224,2.7256208358570566,0.0,0.0,0.0,0.0
1737149444.6965282,9677,1737149522,38307052,,"['front_left_wheel', 'front_right_wheel', 'rear_left_wheel', 'rear_right_wheel']",393.55542095699576,403.42216838279836,393.55542095699576,403.42216838279836,-0.726832222895215,6.0569351907934585,-0.726832222895215,6.0569351907934585,0.0,0.0,0.0,0.0
1737149444.7960107,9678,1737149522,137819662,,"['front_left_wheel', 'front_right_wheel', 'rear_left_wheel', 'rear_right_wheel']",393.519079345851,404.00363416111446,393.519079345851,404.00363416111446,1.2719563900666262,6.0569351907934585,1.2719563900666262,6.0569351907934585,0.0,0.0,0.0,0.0
1737149444.894378,9679,1737149522,236760311,,"['front_left_wheel', 'front_right_wheel', 'rear_left_wheel', 'rear_right_wheel']",393.6038764385221,404.4518473652332,393.6038764385221,404.4518473652332,1.8170805572380375,6.0569351907934585,1.8170805572380375,6.0569351907934585,0.0,0.0,0.0,0.0
1737149444.9939477,9680,1737149522,335337056,,"['front_left_wheel', 'front_right_wheel', 'rear_left_wheel', 'rear_right_wheel']",393.8158691701999,405.1544518473653,393.8158691701999,405.1544518473653,1.8170805572380375,6.0569351907934585,1.8170805572380375,6.0569351907934585,0.0,0.0,0.0,0.0
1737149445.1029918,9681,1737149522,445524621,,"['front_left_wheel', 'front_right_wheel', 'rear_left_wheel', 'rear_right_wheel']",394.02180496668683,405.7904300423985,394.02180496668683,405.7904300423985,1.8170805572380375,6.0569351907934585,1.8170805572380375,6.0569351907934585,0.0,0.0,0.0,0.0
1737149445.2024143,9682,1737149522,544699785,,"['front_left_wheel', 'front_right_wheel', 'rear_left_wheel', 'rear_right_wheel']",394.16111447607506,406.25075711689885,394.16111447607506,406.25075711689885,1.8170805572380375,6.0569351907934585,1.8170805572380375,6.0569351907934585,0.0,0.0,0.0,0.0
1737149445.3013828,9683,1737149522,643307094,,"['front_left_wheel', 'front_right_wheel', 'rear_left_wheel', 'rear_right_wheel']",394.36099333737127,406.94124772864933,394.36099333737127,406.94124772864933,1.635372501514234,6.0569351907934585,1.635372501514234,6.0569351907934585,0.0,0.0,0.0,0.0
1737149445.3996856,9684,1737149522,742140362,,"['front_left_wheel', 'front_right_wheel', 'rear_left_wheel', 'rear_right_wheel']",394.47607510599636,407.62568140520904,394.47607510599636,407.62568140520904,0.6056935190793459,6.0569351907934585,0.6056935190793459,6.0569351907934585,0.0,0.0,0.0,0.0
1737149445.4990754,9685,1737149522,841362765,,"['front_left_wheel', 'front_right_wheel', 'rear_left_wheel', 'rear_right_wheel']",394.5487583282859,408.1102362204725,394.5487583282859,408.1102362204725,0.42398546335554216,6.0569351907934585,0.42398546335554216,6.0569351907934585,0.0,0.0,0.0,0.0
1737149445.5984712,9686,1737149522,940720088,,"['front_left_wheel', 'front_right_wheel', 'rear_left_wheel', 'rear_right_wheel']",394.56692913385825,408.7704421562689,394.56692913385825,408.7704421562689,-0.24227740763173836,6.0569351907934585,-0.24227740763173836,6.0569351907934585,0.0,0.0,0.0,0.0
1737149445.697246,9687,1737149523,39710350,,"['front_left_wheel', 'front_right_wheel', 'rear_left_wheel', 'rear_right_wheel']",394.54270139309506,409.3095093882495,394.54270139309506,409.3095093882495,-0.4845548152634767,6.0569351907934585,-0.4845548152634767,6.0569351907934585,0.0,0.0,0.0,0.0
1737149445.7965734,9688,1737149523,138893119,,"['front_left_wheel', 'front_right_wheel', 'rear_left_wheel', 'rear_right_wheel']",394.48818897637796,409.91520290732893,394.48818897637796,409.91520290732893,-0.4845548152634767,6.0569351907934585,-0.4845548152634767,6.0569351907934585,0.0,0.0,0.0,0.0
1737149445.8944187,9689,1737149523,236897321,,"['front_left_wheel', 'front_right_wheel', 'rear_left_wheel', 'rear_right_wheel']",394.4336765596608,410.5875227135069,394.4336765596608,410.5875227135069,-0.4845548152634767,6.0569351907934585,-0.4845548152634767,6.0569351907934585,0.0,0.0,0.0,0.0
1737149445.9933696,9690,1737149523,335943211,,"['front_left_wheel', 'front_right_wheel', 'rear_left_wheel', 'rear_right_wheel']",394.397334948516,411.03573591762563,394.397334948516,411.03573591762563,-0.4845548152634767,6.0569351907934585,-0.4845548152634767,6.0569351907934585,0.0,0.0,0.0,0.0
1737149446.092924,9691,1737149523,435543325,,"['front_left_wheel', 'front_right_wheel', 'rear_left_wheel', 'rear_right_wheel']",394.3428225317989,411.72016959418534,394.3428225317989,411.72016959418534,-0.4845548152634767,6.0569351907934585,-0.4845548152634767,6.0569351907934585,0.0,0.0,0.0,0.0
1737149446.2029128,9692,1737149523,545384906,,"['front_left_wheel', 'front_right_wheel', 'rear_left_wheel', 'rear_right_wheel']",394.28831011508174,412.38037552998185,394.28831011508174,412.38037552998185,-0.4845548152634767,6.0569351907934585,-0.4845548152634767,6.0569351907934585,0.0,0.0,0.0,0.0
1737149446.3015063,9693,1737149523,644396683,,"['front_left_wheel', 'front_right_wheel', 'rear_left_wheel', 'rear_right_wheel']",394.28831011508174,412.93155663234404,394.28831011508174,412.93155663234404,1.2113870381586918,6.0569351907934585,1.2113870381586918,6.0569351907934585,0.0,0.0,0.0,0.0
1737149446.4006987,9694,1737149523,743385591,,"['front_left_wheel', 'front_right_wheel', 'rear_left_wheel', 'rear_right_wheel']",394.42156268927926,413.519079345851,394.42156268927926,413.519079345851,1.6959418534221686,6.0569351907934585,1.6959418534221686,6.0569351907934585,0.0,0.0,0.0,0.0
1737149446.4995875,9695,1737149523,842265615,,"['front_left_wheel', 'front_right_wheel', 'rear_left_wheel', 'rear_right_wheel']",394.5911568746215,414.1913991520291,394.5911568746215,414.1913991520291,1.8170805572380375,6.0569351907934585,1.8170805572380375,6.0569351907934585,0.0,0.0,0.0,0.0
1737149446.5993621,9696,1737149523,941214725,,"['front_left_wheel', 'front_right_wheel', 'rear_left_wheel', 'rear_right_wheel']",394.76075105996364,414.6517262265294,394.76075105996364,414.6517262265294,1.8170805572380375,6.0569351907934585,1.8170805572380375,6.0569351907934585,0.0,0.0,0.0,0.0
1737149446.6986377,9697,1737149524,40765410,,"['front_left_wheel', 'front_right_wheel', 'rear_left_wheel', 'rear_right_wheel']",394.9788007268322,415.31798909751666,394.9788007268322,415.31798909751666,1.9382192610539069,5.996365838885524,1.9382192610539069,5.996365838885524,0.0,0.0,0.0,0.0
1737149446.7966547,9698,1737149524,139013436,,"['front_left_wheel', 'front_right_wheel', 'rear_left_wheel', 'rear_right_wheel']",395.1241671714113,415.7722592368262,395.1241671714113,415.7722592368262,1.9382192610539069,5.996365838885524,1.9382192610539069,5.996365838885524,0.0,0.0,0.0,0.0
1737149446.906067,9699,1737149524,238963145,,"['front_left_wheel', 'front_right_wheel', 'rear_left_wheel', 'rear_right_wheel']",395.37250151423376,416.4566929133859,395.37250151423376,416.4566929133859,2.4227740763173835,6.0569351907934585,2.4227740763173835,6.0569351907934585,0.0,0.0,0.0,0.0
1737149446.9949317,9700,1737149524,337776114,,"['front_left_wheel', 'front_right_wheel', 'rear_left_wheel', 'rear_right_wheel']",395.56026650514843,417.0926711084191,395.56026650514843,417.0926711084191,2.4227740763173835,6.0569351907934585,2.4227740763173835,6.0569351907934585,0.0,0.0,0.0,0.0
1737149447.0943367,9701,1737149524,436905414,,"['front_left_wheel', 'front_right_wheel', 'rear_left_wheel', 'rear_right_wheel']",395.8328285887341,417.52271350696554,395.8328285887341,417.52271350696554,2.4227740763173835,6.0569351907934585,2.4227740763173835,6.0569351907934585,0.0,0.0,0.0,0.0
1737149447.192955,9702,1737149524,535601882,,"['front_left_wheel', 'front_right_wheel', 'rear_left_wheel', 'rear_right_wheel']",396.11144760751057,418.1768625075712,396.11144760751057,418.1768625075712,2.4227740763173835,6.0569351907934585,2.4227740763173835,6.0569351907934585,0.0,0.0,0.0,0.0
1737149447.3028429,9703,1737149524,645202686,,"['front_left_wheel', 'front_right_wheel', 'rear_left_wheel', 'rear_right_wheel']",396.3840096910963,418.85523924894005,396.3840096910963,418.85523924894005,2.4227740763173835,6.0569351907934585,2.4227740763173835,6.0569351907934585,0.0,0.0,0.0,0.0
1737149447.402417,9704,1737149524,744779184,,"['front_left_wheel', 'front_right_wheel', 'rear_left_wheel', 'rear_right_wheel']",396.5657177468201,419.3216232586312,396.5657177468201,419.3216232586312,2.4227740763173835,6.0569351907934585,2.4227740763173835,6.0569351907934585,0.0,0.0,0.0,0.0
1737149447.5005856,9705,1737149524,843146961,,"['front_left_wheel', 'front_right_wheel', 'rear_left_wheel', 'rear_right_wheel']",396.84433676559667,420.03028467595396,396.84433676559667,420.03028467595396,2.4227740763173835,6.0569351907934585,2.4227740763173835,6.0569351907934585,0.0,0.0,0.0,0.0
1737149447.6002853,9706,1737149524,942988378,,"['front_left_wheel', 'front_right_wheel', 'rear_left_wheel', 'rear_right_wheel']",397.0563294972744,420.68443367655965,397.0563294972744,420.68443367655965,3.3918837068443373,6.0569351907934585,3.3918837068443373,6.0569351907934585,0.0,0.0,0.0,0.0
1737149447.6992743,9707,1737149525,41814093,,"['front_left_wheel', 'front_right_wheel', 'rear_left_wheel', 'rear_right_wheel']",397.46820109024833,421.2113870381587,397.46820109024833,421.2113870381587,3.815869170199879,6.0569351907934585,3.815869170199879,6.0569351907934585,0.0,0.0,0.0,0.0
1737149447.7983563,9708,1737149525,140411206,,"['front_left_wheel', 'front_right_wheel', 'rear_left_wheel', 'rear_right_wheel']",397.8800726832223,421.8231374924288,397.8800726832223,421.8231374924288,3.815869170199879,6.0569351907934585,3.815869170199879,6.0569351907934585,0.0,0.0,0.0,0.0
1737149447.896156,9709,1737149525,239056426,,"['front_left_wheel', 'front_right_wheel', 'rear_left_wheel', 'rear_right_wheel']",398.23137492428833,422.41066020593576,398.23137492428833,422.41066020593576,3.815869170199879,6.0569351907934585,3.815869170199879,6.0569351907934585,0.0,0.0,0.0,0.0
1737149447.9964008,9710,1737149525,338694078,,"['front_left_wheel', 'front_right_wheel', 'rear_left_wheel', 'rear_right_wheel']",398.6008479709267,422.9739551786796,398.6008479709267,422.9739551786796,3.815869170199879,6.0569351907934585,3.815869170199879,6.0569351907934585,0.0,0.0,0.0,0.0
1737149448.0943012,9711,1737149525,436857526,,"['front_left_wheel', 'front_right_wheel', 'rear_left_wheel', 'rear_right_wheel']",398.8976377952756,423.6644457904301,398.8976377952756,423.6644457904301,3.815869170199879,6.0569351907934585,3.815869170199879,6.0569351907934585,0.0,0.0,0.0,0.0
1737149448.1941154,9712,1737149525,536428425,,"['front_left_wheel', 'front_right_wheel', 'rear_left_wheel', 'rear_right_wheel']",399.35190793458514,424.19139915202913,399.35190793458514,424.19139915202913,3.815869170199879,6.0569351907934585,3.815869170199879,6.0569351907934585,0.0,0.0,0.0,0.0
1737149448.293397,9713,1737149525,635867085,,"['front_left_wheel', 'front_right_wheel', 'rear_left_wheel', 'rear_right_wheel']",399.7395517867959,424.8152634766808,399.7395517867959,424.8152634766808,3.270745003028468,6.0569351907934585,3.270745003028468,6.0569351907934585,0.0,0.0,0.0,0.0
1737149448.4024417,9714,1737149525,745270345,,"['front_left_wheel', 'front_right_wheel', 'rear_left_wheel', 'rear_right_wheel']",400.0181708055724,425.5057540884313,400.0181708055724,425.5057540884313,1.45366444579043,6.0569351907934585,1.45366444579043,6.0569351907934585,0.0,0.0,0.0,0.0
1737149448.5012085,9715,1737149525,843909806,,"['front_left_wheel', 'front_right_wheel', 'rear_left_wheel', 'rear_right_wheel']",400.1211387038159,425.9660811629316,400.1211387038159,425.9660811629316,1.150817686250757,6.0569351907934585,1.150817686250757,6.0569351907934585,0.0,0.0,0.0,0.0
1737149448.6000752,9716,1737149525,943049907,,"['front_left_wheel', 'front_right_wheel', 'rear_left_wheel', 'rear_right_wheel']",400.2543912780133,426.65657177468205,400.2543912780133,426.65657177468205,1.150817686250757,6.0569351907934585,1.150817686250757,6.0569351907934585,0.0,0.0,0.0,0.0
1737149448.7003992,9717,1737149526,42149166,,"['front_left_wheel', 'front_right_wheel', 'rear_left_wheel', 'rear_right_wheel']",400.33918837068444,427.1168988491823,400.33918837068444,427.1168988491823,1.150817686250757,6.0569351907934585,1.150817686250757,6.0569351907934585,0.0,0.0,0.0,0.0
1737149448.7998235,9718,1737149526,141171523,,"['front_left_wheel', 'front_right_wheel', 'rear_left_wheel', 'rear_right_wheel']",400.47244094488184,427.80738946093277,400.47244094488184,427.80738946093277,1.150817686250757,6.0569351907934585,1.150817686250757,6.0569351907934585,0.0,0.0,0.0,0.0
1737149448.8987007,9719,1737149526,240269136,,"['front_left_wheel', 'front_right_wheel', 'rear_left_wheel', 'rear_right_wheel']",400.5996365838885,428.4918231374924,400.5996365838885,428.4918231374924,1.150817686250757,6.0569351907934585,1.150817686250757,6.0569351907934585,0.0,0.0,0.0,0.0
1737149448.996726,9720,1737149526,338920044,,"['front_left_wheel', 'front_right_wheel', 'rear_left_wheel', 'rear_right_wheel']",400.6904906117504,428.9945487583283,400.6904906117504,428.9945487583283,1.150817686250757,6.0569351907934585,1.150817686250757,6.0569351907934585,0.0,0.0,0.0,0.0
1737149449.0957158,9721,1737149526,438013924,,"['front_left_wheel', 'front_right_wheel', 'rear_left_wheel', 'rear_right_wheel']",400.8176862507571,429.6426408237432,400.8176862507571,429.6426408237432,1.150817686250757,6.0569351907934585,1.150817686250757,6.0569351907934585,0.0,0.0,0.0,0.0
1737149449.1949625,9722,1737149526,537821627,,"['front_left_wheel', 'front_right_wheel', 'rear_left_wheel', 'rear_right_wheel']",400.93882495457296,430.28467595396734,400.93882495457296,430.28467595396734,1.150817686250757,6.0569351907934585,1.150817686250757,6.0569351907934585,0.0,0.0,0.0,0.0
1737149449.2941816,9723,1737149526,636684645,,"['front_left_wheel', 'front_right_wheel', 'rear_left_wheel', 'rear_right_wheel']",401.0357359176257,430.7934585099939,401.0357359176257,430.7934585099939,1.150817686250757,6.0569351907934585,1.150817686250757,6.0569351907934585,0.0,0.0,0.0,0.0
1737149449.3931305,9724,1737149526,735342594,,"['front_left_wheel', 'front_right_wheel', 'rear_left_wheel', 'rear_right_wheel']",401.16898849182314,431.47789218655356,401.16898849182314,431.47789218655356,1.150817686250757,6.0569351907934585,1.150817686250757,6.0569351907934585,0.0,0.0,0.0,0.0
1737149449.5036325,9725,1737149526,845889033,,"['front_left_wheel', 'front_right_wheel', 'rear_left_wheel', 'rear_right_wheel']",401.24772864930344,432.15021199273167,401.24772864930344,432.15021199273167,0.5451241671714112,6.0569351907934585,0.5451241671714112,6.0569351907934585,0.0,0.0,0.0,0.0
1737149449.6017625,9726,1737149526,944502726,,"['front_left_wheel', 'front_right_wheel', 'rear_left_wheel', 'rear_right_wheel']",401.27195639006663,432.65899454875836,401.27195639006663,432.65899454875836,-1.0902483343428224,6.0569351907934585,-1.0902483343428224,6.0569351907934585,0.0,0.0,0.0,0.0
1737149449.7009513,9727,1737149527,43218030,,"['front_left_wheel', 'front_right_wheel', 'rear_left_wheel', 'rear_right_wheel']",401.1508176862508,433.28285887341,401.1508176862508,433.28285887341,-1.45366444579043,6.0569351907934585,-1.45366444579043,6.0569351907934585,0.0,0.0,0.0,0.0
1737149449.800225,9728,1737149527,142807415,,"['front_left_wheel', 'front_right_wheel', 'rear_left_wheel', 'rear_right_wheel']",400.98728043609935,433.8279830405815,400.98728043609935,433.8279830405815,-2.180496668685645,5.572380375529982,-2.180496668685645,5.572380375529982,0.0,0.0,0.0,0.0
1737149449.8986175,9729,1737149527,241300983,,"['front_left_wheel', 'front_right_wheel', 'rear_left_wheel', 'rear_right_wheel']",400.76317383403995,434.3549364021805,400.76317383403995,434.3549364021805,-2.301635372501514,5.390672319806178,-2.301635372501514,5.390672319806178,0.0,0.0,0.0,0.0
1737149449.9983294,9730,1737149527,340123225,,"['front_left_wheel', 'front_right_wheel', 'rear_left_wheel', 'rear_right_wheel']",400.53906723198065,434.9727437916414,400.53906723198065,434.9727437916414,-2.301635372501514,5.390672319806178,-2.301635372501514,5.390672319806178,0.0,0.0,0.0,0.0
1737149450.096691,9731,1737149527,439491270,,"['front_left_wheel', 'front_right_wheel', 'rear_left_wheel', 'rear_right_wheel']",400.3210175651121,435.4149000605694,400.3210175651121,435.4149000605694,-2.301635372501514,5.390672319806178,-2.301635372501514,5.390672319806178,0.0,0.0,0.0,0.0
1737149450.1958535,9732,1737149527,538581651,,"['front_left_wheel', 'front_right_wheel', 'rear_left_wheel', 'rear_right_wheel']",400.1029678982435,436.0205935796487,400.1029678982435,436.0205935796487,-0.42398546335554216,6.0569351907934585,-0.42398546335554216,6.0569351907934585,0.0,0.0,0.0,0.0
1737149450.2951334,9733,1737149527,637544423,,"['front_left_wheel', 'front_right_wheel', 'rear_left_wheel', 'rear_right_wheel']",400.0787401574803,436.57783161720164,400.0787401574803,436.57783161720164,2.180496668685645,6.0569351907934585,2.180496668685645,6.0569351907934585,0.0,0.0,0.0,0.0
1737149450.3940184,9734,1737149527,736529942,,"['front_left_wheel', 'front_right_wheel', 'rear_left_wheel', 'rear_right_wheel']",400.2786190187765,437.15929739551785,400.2786190187765,437.15929739551785,4.179285281647486,6.0569351907934585,4.179285281647486,6.0569351907934585,0.0,0.0,0.0,0.0
1737149450.4934118,9735,1737149527,835966538,,"['front_left_wheel', 'front_right_wheel', 'rear_left_wheel', 'rear_right_wheel']",400.76317383403995,437.84978800726833,400.76317383403995,437.84978800726833,4.966686856450636,6.0569351907934585,4.966686856450636,6.0569351907934585,0.0,0.0,0.0,0.0
1737149450.6025634,9736,1737149527,945243598,,"['front_left_wheel', 'front_right_wheel', 'rear_left_wheel', 'rear_right_wheel']",401.2658994548758,438.534221683828,401.2658994548758,438.534221683828,5.269533615990309,6.0569351907934585,5.269533615990309,6.0569351907934585,0.0,0.0,0.0,0.0
1737149450.702083,9737,1737149528,44683222,,"['front_left_wheel', 'front_right_wheel', 'rear_left_wheel', 'rear_right_wheel']",401.7504542701393,438.9945487583283,401.7504542701393,438.9945487583283,5.269533615990309,6.0569351907934585,5.269533615990309,6.0569351907934585,0.0,0.0,0.0,0.0
1737149450.8012314,9738,1737149528,143395166,,"['front_left_wheel', 'front_right_wheel', 'rear_left_wheel', 'rear_right_wheel']",402.35614778921865,439.6910963052696,402.35614778921865,439.6910963052696,5.269533615990309,6.0569351907934585,5.269533615990309,6.0569351907934585,0.0,0.0,0.0,0.0
1737149450.900082,9739,1737149528,242527545,,"['front_left_wheel', 'front_right_wheel', 'rear_left_wheel', 'rear_right_wheel']",402.7559055118111,440.175651120533,402.7559055118111,440.175651120533,5.269533615990309,6.0569351907934585,5.269533615990309,6.0569351907934585,0.0,0.0,0.0,0.0
1737149450.9989743,9740,1737149528,341280627,,"['front_left_wheel', 'front_right_wheel', 'rear_left_wheel', 'rear_right_wheel']",403.3676559660812,440.8843125378559,403.3676559660812,440.8843125378559,5.269533615990309,6.0569351907934585,5.269533615990309,6.0569351907934585,0.0,0.0,0.0,0.0
1737149451.0979197,9741,1737149528,439968892,,"['front_left_wheel', 'front_right_wheel', 'rear_left_wheel', 'rear_right_wheel']",403.85826771653547,441.5324046032708,403.85826771653547,441.5324046032708,5.269533615990309,6.0569351907934585,5.269533615990309,6.0569351907934585,0.0,0.0,0.0,0.0
1737149451.1970932,9742,1737149528,539729346,,"['front_left_wheel', 'front_right_wheel', 'rear_left_wheel', 'rear_right_wheel']",404.3549364021805,441.9927316777711,404.3549364021805,441.9927316777711,5.269533615990309,6.0569351907934585,5.269533615990309,6.0569351907934585,0.0,0.0,0.0,0.0
1737149451.2961588,9743,1737149528,638629957,,"['front_left_wheel', 'front_right_wheel', 'rear_left_wheel', 'rear_right_wheel']",404.91823137492435,442.68322228952155,404.91823137492435,442.68322228952155,4.603270745003028,6.0569351907934585,4.603270745003028,6.0569351907934585,0.0,0.0,0.0,0.0
1737149451.3953578,9744,1737149528,737716520,,"['front_left_wheel', 'front_right_wheel', 'rear_left_wheel', 'rear_right_wheel']",405.26347668079956,443.15566323440345,405.26347668079956,443.15566323440345,4.542701393095094,6.0569351907934585,4.542701393095094,6.0569351907934585,0.0,0.0,0.0,0.0
1737149451.4946427,9745,1737149528,836998061,,"['front_left_wheel', 'front_right_wheel', 'rear_left_wheel', 'rear_right_wheel']",405.77225923682613,443.86432465172624,405.77225923682613,443.86432465172624,4.36099333737129,6.0569351907934585,4.36099333737129,6.0569351907934585,0.0,0.0,0.0,0.0
1737149451.592701,9746,1737149528,935517439,,"['front_left_wheel', 'front_right_wheel', 'rear_left_wheel', 'rear_right_wheel']",406.12961841308305,444.52453058752275,406.12961841308305,444.52453058752275,4.300423985463356,6.0569351907934585,4.300423985463356,6.0569351907934585,0.0,0.0,0.0,0.0
1737149451.7023191,9747,1737149529,45181350,,"['front_left_wheel', 'front_right_wheel', 'rear_left_wheel', 'rear_right_wheel']",406.6141732283465,445.06359781950334,406.6141732283465,445.06359781950334,3.937007874015748,6.0569351907934585,3.937007874015748,6.0569351907934585,0.0,0.0,0.0,0.0
1737149451.8017976,9748,1737149529,144418748,,"['front_left_wheel', 'front_right_wheel', 'rear_left_wheel', 'rear_right_wheel']",407.00181708055726,445.6753482737735,407.00181708055726,445.6753482737735,2.2410660205935797,6.0569351907934585,2.2410660205935797,6.0569351907934585,0.0,0.0,0.0,0.0
1737149451.9009886,9749,1737149529,243392397,,"['front_left_wheel', 'front_right_wheel', 'rear_left_wheel', 'rear_right_wheel']",407.2259236826166,446.3658388855239,407.2259236826166,446.3658388855239,1.2719563900666262,6.0569351907934585,1.2719563900666262,6.0569351907934585,0.0,0.0,0.0,0.0
1737149451.999828,9750,1737149529,342229853,,"['front_left_wheel', 'front_right_wheel', 'rear_left_wheel', 'rear_right_wheel']",407.3046638400969,446.82616596002424,407.3046638400969,446.82616596002424,0.7874015748031497,6.0569351907934585,0.7874015748031497,6.0569351907934585,0.0,0.0,0.0,0.0
1737149452.0985506,9751,1737149529,440990840,,"['front_left_wheel', 'front_right_wheel', 'rear_left_wheel', 'rear_right_wheel']",407.3955178679588,447.5711689884919,407.3955178679588,447.5711689884919,0.726832222895215,6.0569351907934585,0.726832222895215,6.0569351907934585,0.0,0.0,0.0,0.0
1737149452.1983848,9752,1737149529,540741190,,"['front_left_wheel', 'front_right_wheel', 'rear_left_wheel', 'rear_right_wheel']",407.4560872198668,448.20714718352514,407.4560872198668,448.20714718352514,0.726832222895215,6.0569351907934585,0.726832222895215,6.0569351907934585,0.0,0.0,0.0,0.0
1737149452.2962518,9753,1737149529,639162663,,"['front_left_wheel', 'front_right_wheel', 'rear_left_wheel', 'rear_right_wheel']",407.5348273773471,448.6674742580255,407.5348273773471,448.6674742580255,0.726832222895215,6.0569351907934585,0.726832222895215,6.0569351907934585,0.0,0.0,0.0,0.0
1737149452.3960087,9754,1737149529,738855455,,"['front_left_wheel', 'front_right_wheel', 'rear_left_wheel', 'rear_right_wheel']",407.6135675348274,449.35796486977586,407.6135675348274,449.35796486977586,0.726832222895215,6.0569351907934585,0.726832222895215,6.0569351907934585,0.0,0.0,0.0,0.0
1737149452.495143,9755,1737149529,837768261,,"['front_left_wheel', 'front_right_wheel', 'rear_left_wheel', 'rear_right_wheel']",407.6680799515445,449.8182919442762,407.6680799515445,449.8182919442762,0.726832222895215,6.0569351907934585,0.726832222895215,6.0569351907934585,0.0,0.0,0.0,0.0
1737149452.5940397,9756,1737149529,936307391,,"['front_left_wheel', 'front_right_wheel', 'rear_left_wheel', 'rear_right_wheel']",407.7528770442156,450.5087825560267,407.7528770442156,450.5087825560267,0.726832222895215,6.0569351907934585,0.726832222895215,6.0569351907934585,0.0,0.0,0.0,0.0
1737149452.6931517,9757,1737149530,35270516,,"['front_left_wheel', 'front_right_wheel', 'rear_left_wheel', 'rear_right_wheel']",407.8073894609327,451.1992731677771,407.8073894609327,451.1992731677771,0.726832222895215,6.0569351907934585,0.726832222895215,6.0569351907934585,0.0,0.0,0.0,0.0
1737149452.803057,9758,1737149530,145272044,,"['front_left_wheel', 'front_right_wheel', 'rear_left_wheel', 'rear_right_wheel']",407.8921865536039,451.671714112659,407.8921865536039,451.671714112659,0.726832222895215,6.0569351907934585,0.726832222895215,6.0569351907934585,0.0,0.0,0.0,0.0
1737149452.9016845,9759,1737149530,244414869,,"['front_left_wheel', 'front_right_wheel', 'rear_left_wheel', 'rear_right_wheel']",408.0254391278013,452.3924894003634,408.0254391278013,452.3924894003634,2.6044821320411873,6.0569351907934585,2.6044821320411873,6.0569351907934585,0.0,0.0,0.0,0.0
1737149453.0012913,9760,1737149530,343698990,,"['front_left_wheel', 'front_right_wheel', 'rear_left_wheel', 'rear_right_wheel']",408.3525136281042,453.0405814657783,408.3525136281042,453.0405814657783,5.3301029678982434,6.0569351907934585,5.3301029678982434,6.0569351907934585,0.0,0.0,0.0,0.0
1737149453.1005263,9761,1737149530,442965019,,"['front_left_wheel', 'front_right_wheel', 'rear_left_wheel', 'rear_right_wheel']",408.72804360993337,453.49485160508783,408.72804360993337,453.49485160508783,6.0569351907934585,6.0569351907934585,6.0569351907934585,6.0569351907934585,0.0,0.0,0.0,0.0
1737149453.1991696,9762,1737149530,541858000,,"['front_left_wheel', 'front_right_wheel', 'rear_left_wheel', 'rear_right_wheel']",409.4003634161115,454.1611144760751,409.4003634161115,454.1611144760751,6.0569351907934585,3.1496062992125986,6.0569351907934585,3.1496062992125986,0.0,0.0,0.0,0.0
1737149453.298838,9763,1737149530,640699945,,"['front_left_wheel', 'front_right_wheel', 'rear_left_wheel', 'rear_right_wheel']",409.8606904906118,454.45790430042405,409.8606904906118,454.45790430042405,6.0569351907934585,2.6650514839491217,6.0569351907934585,2.6650514839491217,0.0,0.0,0.0,0.0
1737149453.3988335,9764,1737149530,739966623,,"['front_left_wheel', 'front_right_wheel', 'rear_left_wheel', 'rear_right_wheel']",410.5511811023622,454.75469412477287,410.5511811023622,454.75469412477287,6.0569351907934585,1.3930950938824955,6.0569351907934585,1.3930950938824955,0.0,0.0,0.0,0.0
1737149453.4961991,9765,1737149530,838859501,,"['front_left_wheel', 'front_right_wheel', 'rear_left_wheel', 'rear_right_wheel']",411.24167171411267,454.9000605693519,411.24167171411267,454.9000605693519,6.0569351907934585,1.2719563900666262,6.0569351907934585,1.2719563900666262,0.0,0.0,0.0,0.0
1737149453.5951025,9766,1737149530,937905076,,"['front_left_wheel', 'front_right_wheel', 'rear_left_wheel', 'rear_right_wheel']",411.75045427013936,455.015142337977,411.75045427013936,455.015142337977,6.0569351907934585,1.2719563900666262,6.0569351907934585,1.2719563900666262,0.0,0.0,0.0,0.0
1737149453.6935825,9767,1737149531,36381702,,"['front_left_wheel', 'front_right_wheel', 'rear_left_wheel', 'rear_right_wheel']",412.3924894003634,455.13022410660204,412.3924894003634,455.13022410660204,6.0569351907934585,0.9691096305269534,6.0569351907934585,0.9691096305269534,0.0,0.0,0.0,0.0
1737149453.792641,9768,1737149531,135470424,,"['front_left_wheel', 'front_right_wheel', 'rear_left_wheel', 'rear_right_wheel']",412.9497274379164,455.2392489400363,412.9497274379164,455.2392489400363,6.0569351907934585,0.9085402786190188,6.0569351907934585,0.9085402786190188,0.0,0.0,0.0,0.0
1737149453.9021602,9769,1737149531,244946736,,"['front_left_wheel', 'front_right_wheel', 'rear_left_wheel', 'rear_right_wheel']",413.65838885523925,455.33010296789826,413.65838885523925,455.33010296789826,6.0569351907934585,0.9085402786190188,6.0569351907934585,0.9085402786190188,0.0,0.0,0.0,0.0
1737149454.001522,9770,1737149531,344538725,,"['front_left_wheel', 'front_right_wheel', 'rear_left_wheel', 'rear_right_wheel']",414.23379769836464,455.4149000605693,414.23379769836464,455.4149000605693,6.0569351907934585,0.9085402786190188,6.0569351907934585,0.9085402786190188,0.0,0.0,0.0,0.0
1737149454.1006603,9771,1737149531,443103745,,"['front_left_wheel', 'front_right_wheel', 'rear_left_wheel', 'rear_right_wheel']",414.7304663840097,455.5178679588129,414.7304663840097,455.5178679588129,6.0569351907934585,0.9085402786190188,6.0569351907934585,0.9085402786190188,0.0,0.0,0.0,0.0
1737149454.199207,9772,1737149531,542234195,,"['front_left_wheel', 'front_right_wheel', 'rear_left_wheel', 'rear_right_wheel']",415.45124167171406,455.60266505148394,415.45124167171406,455.60266505148394,6.0569351907934585,0.9085402786190188,6.0569351907934585,0.9085402786190188,0.0,0.0,0.0,0.0
1737149454.2987907,9773,1737149531,641751203,,"['front_left_wheel', 'front_right_wheel', 'rear_left_wheel', 'rear_right_wheel']",416.07510599636583,455.687462144155,416.07510599636583,455.687462144155,6.0569351907934585,0.9085402786190188,6.0569351907934585,0.9085402786190188,0.0,0.0,0.0,0.0
1737149454.3986077,9774,1737149531,740172147,,"['front_left_wheel', 'front_right_wheel', 'rear_left_wheel', 'rear_right_wheel']",416.65657177468205,455.77831617201696,416.65657177468205,455.77831617201696,6.0569351907934585,0.9085402786190188,6.0569351907934585,0.9085402786190188,0.0,0.0,0.0,0.0
1737149454.4978316,9775,1737149531,839884185,,"['front_left_wheel', 'front_right_wheel', 'rear_left_wheel', 'rear_right_wheel']",417.2259236826166,455.8631132646881,417.2259236826166,455.8631132646881,6.0569351907934585,0.9085402786190188,6.0569351907934585,0.9085402786190188,0.0,0.0,0.0,0.0
1737149454.5954266,9776,1737149531,938107450,,"['front_left_wheel', 'front_right_wheel', 'rear_left_wheel', 'rear_right_wheel']",417.9164142943671,455.9660811629316,417.9164142943671,455.9660811629316,6.0569351907934585,0.9085402786190188,6.0569351907934585,0.9085402786190188,0.0,0.0,0.0,0.0
1737149454.6947792,9777,1737149532,37397244,,"['front_left_wheel', 'front_right_wheel', 'rear_left_wheel', 'rear_right_wheel']",418.37674136886733,456.0327074500303,418.37674136886733,456.0327074500303,6.0569351907934585,0.9085402786190188,6.0569351907934585,0.9085402786190188,0.0,0.0,0.0,0.0
1737149454.7939758,9778,1737149532,136713323,,"['front_left_wheel', 'front_right_wheel', 'rear_left_wheel', 'rear_right_wheel']",419.0732889158086,456.14173228346453,419.0732889158086,456.14173228346453,6.0569351907934585,0.9085402786190188,6.0569351907934585,0.9085402786190188,0.0,0.0,0.0,0.0
1737149454.89262,9779,1737149532,235255040,,"['front_left_wheel', 'front_right_wheel', 'rear_left_wheel', 'rear_right_wheel']",419.54572986069047,456.21441550575406,419.54572986069047,456.21441550575406,6.0569351907934585,0.9085402786190188,6.0569351907934585,0.9085402786190188,0.0,0.0,0.0,0.0
1737149455.002718,9780,1737149532,345639318,,"['front_left_wheel', 'front_right_wheel', 'rear_left_wheel', 'rear_right_wheel']",420.2543912780133,456.31738340399755,420.2543912780133,456.31738340399755,6.0569351907934585,0.9085402786190188,6.0569351907934585,0.9085402786190188,0.0,0.0,0.0,0.0
1737149455.1010163,9781,1737149532,444030576,,"['front_left_wheel', 'front_right_wheel', 'rear_left_wheel', 'rear_right_wheel']",420.91459721380977,456.4142943670503,420.91459721380977,456.4142943670503,6.0569351907934585,0.9085402786190188,6.0569351907934585,0.9085402786190188,0.0,0.0,0.0,0.0
1737149455.2007592,9782,1737149532,543450355,,"['front_left_wheel', 'front_right_wheel', 'rear_left_wheel', 'rear_right_wheel']",421.3749242883101,456.51726226529377,421.3749242883101,456.51726226529377,6.0569351907934585,0.9085402786190188,6.0569351907934585,0.9085402786190188,0.0,0.0,0.0,0.0
1737149455.3002055,9783,1737149532,642972633,,"['front_left_wheel', 'front_right_wheel', 'rear_left_wheel', 'rear_right_wheel']",422.0654149000606,456.5899454875833,422.0654149000606,456.5899454875833,6.0569351907934585,0.9085402786190188,6.0569351907934585,0.9085402786190188,0.0,0.0,0.0,0.0
1737149455.3983924,9784,1737149532,741138131,,"['front_left_wheel', 'front_right_wheel', 'rear_left_wheel', 'rear_right_wheel']",422.755905511811,456.686856450636,422.755905511811,456.686856450636,6.0569351907934585,0.9085402786190188,6.0569351907934585,0.9085402786190188,0.0,0.0,0.0,0.0
1737149455.4982622,9785,1737149532,840041294,,"['front_left_wheel', 'front_right_wheel', 'rear_left_wheel', 'rear_right_wheel']",423.2465172622653,456.7655966081163,423.2465172622653,456.7655966081163,6.0569351907934585,0.9085402786190188,6.0569351907934585,0.9085402786190188,0.0,0.0,0.0,0.0
1737149455.5966218,9786,1737149532,939694304,,"['front_left_wheel', 'front_right_wheel', 'rear_left_wheel', 'rear_right_wheel']",423.900666262871,456.862507571169,423.900666262871,456.862507571169,6.0569351907934585,0.9085402786190188,6.0569351907934585,0.9085402786190188,0.0,0.0,0.0,0.0
1737149455.6955106,9787,1737149533,38560547,,"['front_left_wheel', 'front_right_wheel', 'rear_left_wheel', 'rear_right_wheel']",424.4397334948516,456.96547546941247,424.4397334948516,456.96547546941247,6.0569351907934585,0.9085402786190188,6.0569351907934585,0.9085402786190188,0.0,0.0,0.0,0.0
1737149455.7950563,9788,1737149533,137798091,,"['front_left_wheel', 'front_right_wheel', 'rear_left_wheel', 'rear_right_wheel']",425.05148394912175,457.0321017565112,425.05148394912175,457.0321017565112,6.0569351907934585,0.9085402786190188,6.0569351907934585,0.9085402786190188,0.0,0.0,0.0,0.0
1737149455.8940291,9789,1737149533,236801198,,"['front_left_wheel', 'front_right_wheel', 'rear_left_wheel', 'rear_right_wheel']",425.7419745608722,457.14112658994554,425.7419745608722,457.14112658994554,6.0569351907934585,0.9085402786190188,6.0569351907934585,0.9085402786190188,0.0,0.0,0.0,0.0
1737149455.9929683,9790,1737149533,335769189,,"['front_left_wheel', 'front_right_wheel', 'rear_left_wheel', 'rear_right_wheel']",426.1901877649909,457.20775287704424,426.1901877649909,457.20775287704424,6.0569351907934585,0.9085402786190188,6.0569351907934585,0.9085402786190188,0.0,0.0,0.0,0.0
1737149456.1030023,9791,1737149533,445451775,,"['front_left_wheel', 'front_right_wheel', 'rear_left_wheel', 'rear_right_wheel']",426.91096305269537,457.32283464566933,426.91096305269537,457.32283464566933,6.0569351907934585,0.9085402786190188,6.0569351907934585,0.9085402786190188,0.0,0.0,0.0,0.0
1737149456.2015855,9792,1737149533,544586085,,"['front_left_wheel', 'front_right_wheel', 'rear_left_wheel', 'rear_right_wheel']",427.5469412477286,457.4136886735312,427.5469412477286,457.4136886735312,6.0569351907934585,0.9085402786190188,6.0569351907934585,0.9085402786190188,0.0,0.0,0.0,0.0
1737149456.3014994,9793,1737149533,643983244,,"['front_left_wheel', 'front_right_wheel', 'rear_left_wheel', 'rear_right_wheel']",428.1041792852817,457.5166565717747,428.1041792852817,457.5166565717747,6.0569351907934585,0.8479709267110843,6.0569351907934585,0.8479709267110843,0.0,0.0,0.0,0.0
1737149456.3996222,9794,1737149533,742678339,,"['front_left_wheel', 'front_right_wheel', 'rear_left_wheel', 'rear_right_wheel']",428.69775893397946,457.5711689884918,428.69775893397946,457.5711689884918,6.0569351907934585,0.0,6.0569351907934585,0.0,0.0,0.0,0.0,0.0
1737149456.499571,9795,1737149533,841875397,,"['front_left_wheel', 'front_right_wheel', 'rear_left_wheel', 'rear_right_wheel']",429.3882495457298,457.5711689884918,429.3882495457298,457.5711689884918,6.0569351907934585,-0.30284675953967294,6.0569351907934585,-0.30284675953967294,0.0,0.0,0.0,0.0
1737149456.5979009,9796,1737149533,940331696,,"['front_left_wheel', 'front_right_wheel', 'rear_left_wheel', 'rear_right_wheel']",429.8485766202302,457.55299818291945,429.8485766202302,457.55299818291945,6.0569351907934585,-0.30284675953967294,6.0569351907934585,-0.30284675953967294,0.0,0.0,0.0,0.0
1737149456.6974697,9797,1737149534,39940869,,"['front_left_wheel', 'front_right_wheel', 'rear_left_wheel', 'rear_right_wheel']",430.5390672319806,457.5166565717747,430.5390672319806,457.5166565717747,6.0569351907934585,-0.3634161114476075,6.0569351907934585,-0.3634161114476075,0.0,0.0,0.0,0.0
1737149456.795259,9798,1737149534,138036392,,"['front_left_wheel', 'front_right_wheel', 'rear_left_wheel', 'rear_right_wheel']",430.99939430648095,457.4742580254391,430.99939430648095,457.4742580254391,6.0569351907934585,-0.3634161114476075,6.0569351907934585,-0.3634161114476075,0.0,0.0,0.0,0.0
1737149456.8946924,9799,1737149534,237850301,,"['front_left_wheel', 'front_right_wheel', 'rear_left_wheel', 'rear_right_wheel']",431.70199878861297,457.4439733494852,431.70199878861297,457.4439733494852,6.0569351907934585,-0.3634161114476075,6.0569351907934585,-0.3634161114476075,0.0,0.0,0.0,0.0
1737149456.9937227,9800,1737149534,336715847,,"['front_left_wheel', 'front_right_wheel', 'rear_left_wheel', 'rear_right_wheel']",432.3803755299818,457.4076317383404,432.3803755299818,457.4076317383404,6.0569351907934585,-0.3634161114476075,6.0569351907934585,-0.3634161114476075,0.0,0.0,0.0,0.0
1737149457.091931,9801,1737149534,435099354,,"['front_left_wheel', 'front_right_wheel', 'rear_left_wheel', 'rear_right_wheel']",432.84070260448215,457.3773470623865,432.84070260448215,457.3773470623865,6.0569351907934585,-0.3634161114476075,6.0569351907934585,-0.3634161114476075,0.0,0.0,0.0,0.0
1737149457.2034502,9802,1737149534,545524391,,"['front_left_wheel', 'front_right_wheel', 'rear_left_wheel', 'rear_right_wheel']",433.53119321623257,457.3349485160509,433.53119321623257,457.3349485160509,6.0569351907934585,-0.3634161114476075,6.0569351907934585,-0.3634161114476075,0.0,0.0,0.0,0.0
1737149457.3013783,9803,1737149534,644291562,,"['front_left_wheel', 'front_right_wheel', 'rear_left_wheel', 'rear_right_wheel']",434.22168382798304,457.2925499697153,434.22168382798304,457.2925499697153,6.0569351907934585,-0.3634161114476075,6.0569351907934585,-0.3634161114476075,0.0,0.0,0.0,0.0
1737149457.4002538,9804,1737149534,743262271,,"['front_left_wheel', 'front_right_wheel', 'rear_left_wheel', 'rear_right_wheel']",434.69412477286494,457.26226529376135,434.69412477286494,457.26226529376135,6.0569351907934585,-0.3634161114476075,6.0569351907934585,-0.3634161114476075,0.0,0.0,0.0,0.0
1737149457.4997888,9805,1737149534,842897277,,"['front_left_wheel', 'front_right_wheel', 'rear_left_wheel', 'rear_right_wheel']",435.40884312537855,457.2198667474258,435.40884312537855,457.2198667474258,6.0569351907934585,-0.3634161114476075,6.0569351907934585,-0.3634161114476075,0.0,0.0,0.0,0.0
1737149457.598777,9806,1737149534,941949286,,"['front_left_wheel', 'front_right_wheel', 'rear_left_wheel', 'rear_right_wheel']",436.06299212598424,457.19563900666265,436.06299212598424,457.19563900666265,6.0569351907934585,0.06056935190793459,6.0569351907934585,0.06056935190793459,0.0,0.0,0.0,0.0
1737149457.6973498,9807,1737149535,40336809,,"['front_left_wheel', 'front_right_wheel', 'rear_left_wheel', 'rear_right_wheel']",436.6020593579649,457.2562083585705,436.6020593579649,457.2562083585705,5.996365838885524,2.90732889158086,5.996365838885524,2.90732889158086,0.0,0.0,0.0,0.0
1737149457.7971146,9808,1737149535,139119426,,"['front_left_wheel', 'front_right_wheel', 'rear_left_wheel', 'rear_right_wheel']",437.20775287704424,457.5166565717747,437.20775287704424,457.5166565717747,6.0569351907934585,4.724409448818898,6.0569351907934585,4.724409448818898,0.0,0.0,0.0,0.0
1737149457.8963065,9809,1737149535,238797919,,"['front_left_wheel', 'front_right_wheel', 'rear_left_wheel', 'rear_right_wheel']",437.801332525742,458.03755299818295,437.801332525742,458.03755299818295,6.0569351907934585,6.0569351907934585,6.0569351907934585,6.0569351907934585,0.0,0.0,0.0,0.0
1737149457.995547,9810,1737149535,337890250,,"['front_left_wheel', 'front_right_wheel', 'rear_left_wheel', 'rear_right_wheel']",438.358570563295,458.564506359782,438.358570563295,458.564506359782,6.0569351907934585,6.0569351907934585,6.0569351907934585,6.0569351907934585,0.0,0.0,0.0,0.0
1737149458.0937612,9811,1737149535,435997986,,"['front_left_wheel', 'front_right_wheel', 'rear_left_wheel', 'rear_right_wheel']",439.0490611750454,459.25499697153236,439.0490611750454,459.25499697153236,6.0569351907934585,6.0569351907934585,6.0569351907934585,6.0569351907934585,0.0,0.0,0.0,0.0
1737149458.1928,9812,1737149535,535125677,,"['front_left_wheel', 'front_right_wheel', 'rear_left_wheel', 'rear_right_wheel']",439.57601453664444,459.8182919442762,439.57601453664444,459.8182919442762,6.0569351907934585,6.0569351907934585,6.0569351907934585,6.0569351907934585,0.0,0.0,0.0,0.0
1737149458.3019314,9813,1737149535,645155900,,"['front_left_wheel', 'front_right_wheel', 'rear_left_wheel', 'rear_right_wheel']",440.28467595396734,460.52695336159906,440.28467595396734,460.52695336159906,6.0569351907934585,6.0569351907934585,6.0569351907934585,6.0569351907934585,0.0,0.0,0.0,0.0
1737149458.4013934,9814,1737149535,744639111,,"['front_left_wheel', 'front_right_wheel', 'rear_left_wheel', 'rear_right_wheel']",440.89036947304663,461.10236220472444,440.89036947304663,461.10236220472444,6.0569351907934585,6.0569351907934585,6.0569351907934585,6.0569351907934585,0.0,0.0,0.0,0.0
1737149458.5000134,9815,1737149535,843015025,,"['front_left_wheel', 'front_right_wheel', 'rear_left_wheel', 'rear_right_wheel']",441.350696547547,461.5626892792247,441.350696547547,461.5626892792247,6.0569351907934585,6.0569351907934585,6.0569351907934585,6.0569351907934585,0.0,0.0,0.0,0.0
1737149458.5992308,9816,1737149535,942353107,,"['front_left_wheel', 'front_right_wheel', 'rear_left_wheel', 'rear_right_wheel']",442.04118715929735,462.25317989097516,442.04118715929735,462.25317989097516,6.0569351907934585,6.0569351907934585,6.0569351907934585,6.0569351907934585,0.0,0.0,0.0,0.0
1737149458.6982055,9817,1737149536,41455080,,"['front_left_wheel', 'front_right_wheel', 'rear_left_wheel', 'rear_right_wheel']",442.5015142337977,462.94367050272564,442.5015142337977,462.94367050272564,6.0569351907934585,6.0569351907934585,6.0569351907934585,6.0569351907934585,0.0,0.0,0.0,0.0
1737149458.7992861,9818,1737149536,140853832,,"['front_left_wheel', 'front_right_wheel', 'rear_left_wheel', 'rear_right_wheel']",443.1738340399758,463.42822531798913,443.1738340399758,463.42822531798913,5.027256208358571,6.0569351907934585,5.027256208358571,6.0569351907934585,0.0,0.0,0.0,0.0
1737149458.9076731,9819,1737149536,239384409,,"['front_left_wheel', 'front_right_wheel', 'rear_left_wheel', 'rear_right_wheel']",443.7129012719564,464.0944881889764,443.7129012719564,464.0944881889764,3.5735917625681406,6.0569351907934585,3.5735917625681406,6.0569351907934585,0.0,0.0,0.0,0.0
1737149458.9963157,9820,1737149536,338833083,,"['front_left_wheel', 'front_right_wheel', 'rear_left_wheel', 'rear_right_wheel']",443.9975772259237,464.6274984857662,443.9975772259237,464.6274984857662,2.6650514839491217,6.0569351907934585,2.6650514839491217,6.0569351907934585,0.0,0.0,0.0,0.0
1737149459.0958123,9821,1737149536,437839699,,"['front_left_wheel', 'front_right_wheel', 'rear_left_wheel', 'rear_right_wheel']",444.2640823743186,465.24530587522713,444.2640823743186,465.24530587522713,2.301635372501514,6.0569351907934585,2.301635372501514,6.0569351907934585,0.0,0.0,0.0,0.0
1737149459.1945617,9822,1737149536,536685980,,"['front_left_wheel', 'front_right_wheel', 'rear_left_wheel', 'rear_right_wheel']",444.52453058752275,465.9357964869776,444.52453058752275,465.9357964869776,2.301635372501514,6.0569351907934585,2.301635372501514,6.0569351907934585,0.0,0.0,0.0,0.0
1737149459.2932765,9823,1737149536,635599490,,"['front_left_wheel', 'front_right_wheel', 'rear_left_wheel', 'rear_right_wheel']",444.70018170805577,466.4082374318595,444.70018170805577,466.4082374318595,2.301635372501514,6.0569351907934585,2.301635372501514,6.0569351907934585,0.0,0.0,0.0,0.0
1737149459.4024928,9824,1737149536,745295487,,"['front_left_wheel', 'front_right_wheel', 'rear_left_wheel', 'rear_right_wheel']",444.9666868564506,467.1168988491823,444.9666868564506,467.1168988491823,2.301635372501514,6.0569351907934585,2.301635372501514,6.0569351907934585,0.0,0.0,0.0,0.0
1737149459.5006957,9825,1737149536,844015986,,"['front_left_wheel', 'front_right_wheel', 'rear_left_wheel', 'rear_right_wheel']",445.2271350696548,467.77104784978803,445.2271350696548,467.77104784978803,2.301635372501514,6.0569351907934585,2.301635372501514,6.0569351907934585,0.0,0.0,0.0,0.0
1737149459.6007886,9826,1737149536,943606848,,"['front_left_wheel', 'front_right_wheel', 'rear_left_wheel', 'rear_right_wheel']",445.427013930951,468.328285887341,445.427013930951,468.328285887341,2.2410660205935797,6.0569351907934585,2.2410660205935797,6.0569351907934585,0.0,0.0,0.0,0.0
1737149459.6991525,9827,1737149537,42230232,,"['front_left_wheel', 'front_right_wheel', 'rear_left_wheel', 'rear_right_wheel']",445.6571774682011,468.92186553603875,445.6571774682011,468.92186553603875,2.2410660205935797,6.0569351907934585,2.2410660205935797,6.0569351907934585,0.0,0.0,0.0,0.0
1737149459.798882,9828,1737149537,141072231,,"['front_left_wheel', 'front_right_wheel', 'rear_left_wheel', 'rear_right_wheel']",445.86917019987885,469.6123561477892,445.86917019987885,469.6123561477892,2.2410660205935797,6.0569351907934585,2.2410660205935797,6.0569351907934585,0.0,0.0,0.0,0.0
1737149459.8989756,9829,1737149537,240800054,,"['front_left_wheel', 'front_right_wheel', 'rear_left_wheel', 'rear_right_wheel']",446.0811629315566,470.07268322228947,446.0811629315566,470.07268322228947,2.180496668685645,6.0569351907934585,2.180496668685645,6.0569351907934585,0.0,0.0,0.0,0.0
1737149459.9961543,9830,1737149537,338971754,,"['front_left_wheel', 'front_right_wheel', 'rear_left_wheel', 'rear_right_wheel']",446.32949727437915,470.76317383404,446.32949727437915,470.76317383404,2.180496668685645,6.0569351907934585,2.180496668685645,6.0569351907934585,0.0,0.0,0.0,0.0
1737149460.0956275,9831,1737149537,438535176,,"['front_left_wheel', 'front_right_wheel', 'rear_left_wheel', 'rear_right_wheel']",446.51120533010294,471.3082980012114,446.51120533010294,471.3082980012114,2.1199273167777104,6.0569351907934585,2.1199273167777104,6.0569351907934585,0.0,0.0,0.0,0.0
1737149460.194796,9832,1737149537,537930885,,"['front_left_wheel', 'front_right_wheel', 'rear_left_wheel', 'rear_right_wheel']",446.73531193216235,471.9139915202907,446.73531193216235,471.9139915202907,2.1199273167777104,6.0569351907934585,2.1199273167777104,6.0569351907934585,0.0,0.0,0.0,0.0
1737149460.292992,9833,1737149537,636104295,,"['front_left_wheel', 'front_right_wheel', 'rear_left_wheel', 'rear_right_wheel']",446.92913385826773,472.6044821320412,446.92913385826773,472.6044821320412,2.1199273167777104,6.0569351907934585,2.1199273167777104,6.0569351907934585,0.0,0.0,0.0,0.0
1737149460.3921542,9834,1737149537,735055094,,"['front_left_wheel', 'front_right_wheel', 'rear_left_wheel', 'rear_right_wheel']",447.15929739551785,473.06480920654144,447.15929739551785,473.06480920654144,4.784978800726832,6.0569351907934585,4.784978800726832,6.0569351907934585,0.0,0.0,0.0,0.0
