Time,header.seq,header.stamp.secs,header.stamp.nsecs,header.frame_id,name,position_0,position_1,position_2,position_3,velocity_0,velocity_1,velocity_2,velocity_3,effort_0,effort_1,effort_2,effort_3
1737149042.2677062,5649,1737149118,943115387,,"['front_left_wheel', 'front_right_wheel', 'rear_left_wheel', 'rear_right_wheel']",235.46941247728648,210.88431253785586,235.46941247728648,210.88431253785586,0.0,0.0,0.0,0.0,0.0,0.0,0.0,0.0
1737149042.2677803,5650,1737149119,41732652,,"['front_left_wheel', 'front_right_wheel', 'rear_left_wheel', 'rear_right_wheel']",235.46941247728648,210.88431253785586,235.46941247728648,210.88431253785586,0.0,0.0,0.0,0.0,0.0,0.0,0.0,0.0
1737149042.2678502,5651,1737149119,140939648,,"['front_left_wheel', 'front_right_wheel', 'rear_left_wheel', 'rear_right_wheel']",235.46941247728648,210.88431253785586,235.46941247728648,210.88431253785586,0.0,0.0,0.0,0.0,0.0,0.0,0.0,0.0
1737149042.2679386,5652,1737149119,239423797,,"['front_left_wheel', 'front_right_wheel', 'rear_left_wheel', 'rear_right_wheel']",235.46941247728648,210.88431253785586,235.46941247728648,210.88431253785586,0.0,0.0,0.0,0.0,0.0,0.0,0.0,0.0
1737149042.2680113,5653,1737149119,338901159,,"['front_left_wheel', 'front_right_wheel', 'rear_left_wheel', 'rear_right_wheel']",235.46941247728648,210.88431253785586,235.46941247728648,210.88431253785586,0.0,0.0,0.0,0.0,0.0,0.0,0.0,0.0
1737149042.2681131,5654,1737149119,437524217,,"['front_left_wheel', 'front_right_wheel', 'rear_left_wheel', 'rear_right_wheel']",235.46941247728648,210.88431253785586,235.46941247728648,210.88431253785586,0.0,0.0,0.0,0.0,0.0,0.0,0.0,0.0
1737149042.2682106,5655,1737149119,537382867,,"['front_left_wheel', 'front_right_wheel', 'rear_left_wheel', 'rear_right_wheel']",235.46941247728648,210.88431253785586,235.46941247728648,210.88431253785586,0.0,0.0,0.0,0.0,0.0,0.0,0.0,0.0
1737149042.3095858,5656,1737149119,636255736,,"['front_left_wheel', 'front_right_wheel', 'rear_left_wheel', 'rear_right_wheel']",235.46941247728648,210.88431253785586,235.46941247728648,210.88431253785586,0.0,0.0,0.0,0.0,0.0,0.0,0.0,0.0
1737149042.4079182,5657,1737149119,734504906,,"['front_left_wheel', 'front_right_wheel', 'rear_left_wheel', 'rear_right_wheel']",235.46941247728648,210.88431253785586,235.46941247728648,210.88431253785586,0.0,0.0,0.0,0.0,0.0,0.0,0.0,0.0
1737149042.521995,5658,1737149119,845179621,,"['front_left_wheel', 'front_right_wheel', 'rear_left_wheel', 'rear_right_wheel']",235.46941247728648,210.88431253785586,235.46941247728648,210.88431253785586,0.0,0.0,0.0,0.0,0.0,0.0,0.0,0.0
1737149042.6176252,5659,1737149119,944271334,,"['front_left_wheel', 'front_right_wheel', 'rear_left_wheel', 'rear_right_wheel']",235.46941247728648,210.88431253785586,235.46941247728648,210.88431253785586,0.0,0.0,0.0,0.0,0.0,0.0,0.0,0.0
1737149042.7166028,5660,1737149120,43283919,,"['front_left_wheel', 'front_right_wheel', 'rear_left_wheel', 'rear_right_wheel']",235.46941247728648,210.88431253785586,235.46941247728648,210.88431253785586,0.0,0.0,0.0,0.0,0.0,0.0,0.0,0.0
1737149042.8152313,5661,1737149120,141866296,,"['front_left_wheel', 'front_right_wheel', 'rear_left_wheel', 'rear_right_wheel']",235.46941247728648,210.88431253785586,235.46941247728648,210.88431253785586,0.0,0.0,0.0,0.0,0.0,0.0,0.0,0.0
1737149042.9145932,5662,1737149120,241327226,,"['front_left_wheel', 'front_right_wheel', 'rear_left_wheel', 'rear_right_wheel']",235.46941247728648,210.88431253785586,235.46941247728648,210.88431253785586,0.0,0.0,0.0,0.0,0.0,0.0,0.0,0.0
1737149043.0147855,5663,1737149120,340296652,,"['front_left_wheel', 'front_right_wheel', 'rear_left_wheel', 'rear_right_wheel']",235.46941247728648,210.88431253785586,235.46941247728648,210.88431253785586,0.0,0.0,0.0,0.0,0.0,0.0,0.0,0.0
1737149043.1124737,5664,1737149120,439046289,,"['front_left_wheel', 'front_right_wheel', 'rear_left_wheel', 'rear_right_wheel']",235.46941247728648,210.88431253785586,235.46941247728648,210.88431253785586,0.0,0.0,0.0,0.0,0.0,0.0,0.0,0.0
1737149043.2113795,5665,1737149120,537941896,,"['front_left_wheel', 'front_right_wheel', 'rear_left_wheel', 'rear_right_wheel']",235.46941247728648,210.88431253785586,235.46941247728648,210.88431253785586,0.0,0.0,0.0,0.0,0.0,0.0,0.0,0.0
1737149043.3100233,5666,1737149120,636433133,,"['front_left_wheel', 'front_right_wheel', 'rear_left_wheel', 'rear_right_wheel']",235.46941247728648,210.88431253785586,235.46941247728648,210.88431253785586,0.0,0.0,0.0,0.0,0.0,0.0,0.0,0.0
1737149043.4095306,5667,1737149120,735908701,,"['front_left_wheel', 'front_right_wheel', 'rear_left_wheel', 'rear_right_wheel']",235.46941247728648,210.88431253785586,235.46941247728648,210.88431253785586,0.0,0.0,0.0,0.0,0.0,0.0,0.0,0.0
1737149043.5079904,5668,1737149120,834790926,,"['front_left_wheel', 'front_right_wheel', 'rear_left_wheel', 'rear_right_wheel']",235.46941247728648,210.88431253785586,235.46941247728648,210.88431253785586,0.0,0.0,0.0,0.0,0.0,0.0,0.0,0.0
1737149043.6178193,5669,1737149120,944657688,,"['front_left_wheel', 'front_right_wheel', 'rear_left_wheel', 'rear_right_wheel']",235.46941247728648,210.88431253785586,235.46941247728648,210.88431253785586,0.0,0.0,0.0,0.0,0.0,0.0,0.0,0.0
1737149043.7170236,5670,1737149121,44117953,,"['front_left_wheel', 'front_right_wheel', 'rear_left_wheel', 'rear_right_wheel']",235.46941247728648,210.88431253785586,235.46941247728648,210.88431253785586,0.0,0.0,0.0,0.0,0.0,0.0,0.0,0.0
1737149043.8154628,5671,1737149121,142347783,,"['front_left_wheel', 'front_right_wheel', 'rear_left_wheel', 'rear_right_wheel']",235.46941247728648,210.88431253785586,235.46941247728648,210.88431253785586,0.0,0.0,0.0,0.0,0.0,0.0,0.0,0.0
1737149043.9146612,5672,1737149121,241278534,,"['front_left_wheel', 'front_right_wheel', 'rear_left_wheel', 'rear_right_wheel']",235.46941247728648,210.88431253785586,235.46941247728648,210.88431253785586,0.0,0.0,0.0,0.0,0.0,0.0,0.0,0.0
1737149044.0146332,5673,1737149121,341003043,,"['front_left_wheel', 'front_right_wheel', 'rear_left_wheel', 'rear_right_wheel']",235.46941247728648,210.88431253785586,235.46941247728648,210.88431253785586,0.0,0.0,0.0,0.0,0.0,0.0,0.0,0.0
1737149044.1135325,5674,1737149121,440122310,,"['front_left_wheel', 'front_right_wheel', 'rear_left_wheel', 'rear_right_wheel']",235.46941247728648,210.88431253785586,235.46941247728648,210.88431253785586,0.0,0.0,0.0,0.0,0.0,0.0,0.0,0.0
1737149044.2133176,5675,1737149121,538910056,,"['front_left_wheel', 'front_right_wheel', 'rear_left_wheel', 'rear_right_wheel']",235.46941247728648,210.88431253785586,235.46941247728648,210.88431253785586,0.0,0.0,0.0,0.0,0.0,0.0,0.0,0.0
1737149044.311582,5676,1737149121,637975431,,"['front_left_wheel', 'front_right_wheel', 'rear_left_wheel', 'rear_right_wheel']",235.46941247728648,210.88431253785586,235.46941247728648,210.88431253785586,0.0,0.0,0.0,0.0,0.0,0.0,0.0,0.0
1737149044.409424,5677,1737149121,736364507,,"['front_left_wheel', 'front_right_wheel', 'rear_left_wheel', 'rear_right_wheel']",235.46941247728648,210.88431253785586,235.46941247728648,210.88431253785586,0.0,0.0,0.0,0.0,0.0,0.0,0.0,0.0
1737149044.5090523,5678,1737149121,835535731,,"['front_left_wheel', 'front_right_wheel', 'rear_left_wheel', 'rear_right_wheel']",235.46941247728648,210.88431253785586,235.46941247728648,210.88431253785586,0.0,0.0,0.0,0.0,0.0,0.0,0.0,0.0
1737149044.6082435,5679,1737149121,934644080,,"['front_left_wheel', 'front_right_wheel', 'rear_left_wheel', 'rear_right_wheel']",235.46941247728648,210.88431253785586,235.46941247728648,210.88431253785586,0.0,0.0,0.0,0.0,0.0,0.0,0.0,0.0
1737149044.7181382,5680,1737149122,44333509,,"['front_left_wheel', 'front_right_wheel', 'rear_left_wheel', 'rear_right_wheel']",235.46941247728648,210.88431253785586,235.46941247728648,210.88431253785586,0.0,0.0,0.0,0.0,0.0,0.0,0.0,0.0
1737149044.8165867,5681,1737149122,143402306,,"['front_left_wheel', 'front_right_wheel', 'rear_left_wheel', 'rear_right_wheel']",235.46941247728648,210.88431253785586,235.46941247728648,210.88431253785586,0.0,0.0,0.0,0.0,0.0,0.0,0.0,0.0
1737149044.916772,5682,1737149122,243324506,,"['front_left_wheel', 'front_right_wheel', 'rear_left_wheel', 'rear_right_wheel']",235.46941247728648,210.88431253785586,235.46941247728648,210.88431253785586,0.0,0.0,0.0,0.0,0.0,0.0,0.0,0.0
1737149045.0160828,5683,1737149122,342312290,,"['front_left_wheel', 'front_right_wheel', 'rear_left_wheel', 'rear_right_wheel']",235.46941247728648,210.88431253785586,235.46941247728648,210.88431253785586,0.0,0.0,0.0,0.0,0.0,0.0,0.0,0.0
1737149045.1145036,5684,1737149122,441024890,,"['front_left_wheel', 'front_right_wheel', 'rear_left_wheel', 'rear_right_wheel']",235.46941247728648,210.88431253785586,235.46941247728648,210.88431253785586,0.0,0.0,0.0,0.0,0.0,0.0,0.0,0.0
1737149045.2139862,5685,1737149122,539982469,,"['front_left_wheel', 'front_right_wheel', 'rear_left_wheel', 'rear_right_wheel']",235.46941247728648,210.88431253785586,235.46941247728648,210.88431253785586,0.0,0.0,0.0,0.0,0.0,0.0,0.0,0.0
1737149045.312029,5686,1737149122,638766996,,"['front_left_wheel', 'front_right_wheel', 'rear_left_wheel', 'rear_right_wheel']",235.46941247728648,210.88431253785586,235.46941247728648,210.88431253785586,0.0,0.0,0.0,0.0,0.0,0.0,0.0,0.0
1737149045.4112833,5687,1737149122,737970720,,"['front_left_wheel', 'front_right_wheel', 'rear_left_wheel', 'rear_right_wheel']",235.46941247728648,210.88431253785586,235.46941247728648,210.88431253785586,0.0,0.0,0.0,0.0,0.0,0.0,0.0,0.0
1737149045.5103278,5688,1737149122,837399389,,"['front_left_wheel', 'front_right_wheel', 'rear_left_wheel', 'rear_right_wheel']",235.46941247728648,210.88431253785586,235.46941247728648,210.88431253785586,0.0,0.0,0.0,0.0,0.0,0.0,0.0,0.0
1737149045.6088312,5689,1737149122,935482522,,"['front_left_wheel', 'front_right_wheel', 'rear_left_wheel', 'rear_right_wheel']",235.46941247728648,210.88431253785586,235.46941247728648,210.88431253785586,0.0,0.0,0.0,0.0,0.0,0.0,0.0,0.0
1737149045.7076378,5690,1737149123,34536914,,"['front_left_wheel', 'front_right_wheel', 'rear_left_wheel', 'rear_right_wheel']",235.46941247728648,210.88431253785586,235.46941247728648,210.88431253785586,0.0,0.0,0.0,0.0,0.0,0.0,0.0,0.0
1737149045.8180487,5691,1737149123,145026167,,"['front_left_wheel', 'front_right_wheel', 'rear_left_wheel', 'rear_right_wheel']",235.46941247728648,210.88431253785586,235.46941247728648,210.88431253785586,0.0,0.0,0.0,0.0,0.0,0.0,0.0,0.0
1737149045.91698,5692,1737149123,243330161,,"['front_left_wheel', 'front_right_wheel', 'rear_left_wheel', 'rear_right_wheel']",235.46941247728648,210.88431253785586,235.46941247728648,210.88431253785586,0.0,0.0,0.0,0.0,0.0,0.0,0.0,0.0
1737149046.0160964,5693,1737149123,342686427,,"['front_left_wheel', 'front_right_wheel', 'rear_left_wheel', 'rear_right_wheel']",235.46941247728648,210.88431253785586,235.46941247728648,210.88431253785586,0.0,0.0,0.0,0.0,0.0,0.0,0.0,0.0
1737149046.115485,5694,1737149123,442110520,,"['front_left_wheel', 'front_right_wheel', 'rear_left_wheel', 'rear_right_wheel']",235.46941247728648,210.88431253785586,235.46941247728648,210.88431253785586,0.0,0.0,0.0,0.0,0.0,0.0,0.0,0.0
1737149046.2144835,5695,1737149123,541058145,,"['front_left_wheel', 'front_right_wheel', 'rear_left_wheel', 'rear_right_wheel']",235.46941247728648,210.88431253785586,235.46941247728648,210.88431253785586,0.0,0.0,0.0,0.0,0.0,0.0,0.0,0.0
1737149046.3130937,5696,1737149123,639381711,,"['front_left_wheel', 'front_right_wheel', 'rear_left_wheel', 'rear_right_wheel']",235.46941247728648,210.88431253785586,235.46941247728648,210.88431253785586,0.0,0.0,0.0,0.0,0.0,0.0,0.0,0.0
1737149046.4123917,5697,1737149123,738972345,,"['front_left_wheel', 'front_right_wheel', 'rear_left_wheel', 'rear_right_wheel']",235.46941247728648,210.88431253785586,235.46941247728648,210.88431253785586,0.0,0.0,0.0,0.0,0.0,0.0,0.0,0.0
1737149046.511137,5698,1737149123,838180071,,"['front_left_wheel', 'front_right_wheel', 'rear_left_wheel', 'rear_right_wheel']",235.46941247728648,210.88431253785586,235.46941247728648,210.88431253785586,0.0,0.0,0.0,0.0,0.0,0.0,0.0,0.0
1737149046.6102042,5699,1737149123,936864756,,"['front_left_wheel', 'front_right_wheel', 'rear_left_wheel', 'rear_right_wheel']",235.46941247728648,210.88431253785586,235.46941247728648,210.88431253785586,0.0,0.0,0.0,0.0,0.0,0.0,0.0,0.0
1737149046.7093585,5700,1737149124,36133801,,"['front_left_wheel', 'front_right_wheel', 'rear_left_wheel', 'rear_right_wheel']",235.46941247728648,210.88431253785586,235.46941247728648,210.88431253785586,0.0,0.0,0.0,0.0,0.0,0.0,0.0,0.0
1737149046.8084054,5701,1737149124,135027702,,"['front_left_wheel', 'front_right_wheel', 'rear_left_wheel', 'rear_right_wheel']",235.46941247728648,210.88431253785586,235.46941247728648,210.88431253785586,0.0,0.0,0.0,0.0,0.0,0.0,0.0,0.0
1737149046.917919,5702,1737149124,244647338,,"['front_left_wheel', 'front_right_wheel', 'rear_left_wheel', 'rear_right_wheel']",235.46941247728648,210.88431253785586,235.46941247728648,210.88431253785586,0.0,0.0,0.0,0.0,0.0,0.0,0.0,0.0
1737149047.0162437,5703,1737149124,343358527,,"['front_left_wheel', 'front_right_wheel', 'rear_left_wheel', 'rear_right_wheel']",235.46941247728648,210.88431253785586,235.46941247728648,210.88431253785586,0.0,0.0,0.0,0.0,0.0,0.0,0.0,0.0
1737149047.1154504,5704,1737149124,442329816,,"['front_left_wheel', 'front_right_wheel', 'rear_left_wheel', 'rear_right_wheel']",235.46941247728648,210.88431253785586,235.46941247728648,210.88431253785586,0.0,0.0,0.0,0.0,0.0,0.0,0.0,0.0
1737149047.2150674,5705,1737149124,541979944,,"['front_left_wheel', 'front_right_wheel', 'rear_left_wheel', 'rear_right_wheel']",235.46941247728648,210.88431253785586,235.46941247728648,210.88431253785586,0.0,0.0,0.0,0.0,0.0,0.0,0.0,0.0
1737149047.3140056,5706,1737149124,640626615,,"['front_left_wheel', 'front_right_wheel', 'rear_left_wheel', 'rear_right_wheel']",235.46941247728648,210.88431253785586,235.46941247728648,210.88431253785586,0.0,0.0,0.0,0.0,0.0,0.0,0.0,0.0
1737149047.4139416,5707,1737149124,739958966,,"['front_left_wheel', 'front_right_wheel', 'rear_left_wheel', 'rear_right_wheel']",235.46941247728648,210.88431253785586,235.46941247728648,210.88431253785586,0.0,0.0,0.0,0.0,0.0,0.0,0.0,0.0
1737149047.5125802,5708,1737149124,838613386,,"['front_left_wheel', 'front_right_wheel', 'rear_left_wheel', 'rear_right_wheel']",235.49969715324048,210.91459721380983,235.49969715324048,210.91459721380983,1.2719563900666262,1.0902483343428224,1.2719563900666262,1.0902483343428224,0.0,0.0,0.0,0.0
1737149047.610932,5709,1737149124,938027918,,"['front_left_wheel', 'front_right_wheel', 'rear_left_wheel', 'rear_right_wheel']",235.60872198667477,211.01150817686252,235.60872198667477,211.01150817686252,1.2719563900666262,1.0902483343428224,1.2719563900666262,1.0902483343428224,0.0,0.0,0.0,0.0
1737149047.7099156,5710,1737149125,36694634,,"['front_left_wheel', 'front_right_wheel', 'rear_left_wheel', 'rear_right_wheel']",235.748031496063,211.1205330102968,235.748031496063,211.1205330102968,1.3325257419745609,1.029678982434888,1.3325257419745609,1.029678982434888,0.0,0.0,0.0,0.0
1737149047.8090105,5711,1737149125,135859947,,"['front_left_wheel', 'front_right_wheel', 'rear_left_wheel', 'rear_right_wheel']",235.89945487583284,211.23561477892187,235.89945487583284,211.23561477892187,1.3325257419745609,1.029678982434888,1.3325257419745609,1.029678982434888,0.0,0.0,0.0,0.0
1737149047.90817,5712,1737149125,235010269,,"['front_left_wheel', 'front_right_wheel', 'rear_left_wheel', 'rear_right_wheel']",236.0024227740763,211.31435493640217,236.0024227740763,211.31435493640217,1.3930950938824955,0.9691096305269534,1.3930950938824955,0.9691096305269534,0.0,0.0,0.0,0.0
1737149048.017228,5713,1737149125,344503160,,"['front_left_wheel', 'front_right_wheel', 'rear_left_wheel', 'rear_right_wheel']",236.15990308903696,211.42337976983646,236.15990308903696,211.42337976983646,1.3930950938824955,0.9691096305269534,1.3930950938824955,0.9691096305269534,0.0,0.0,0.0,0.0
1737149048.1167042,5714,1737149125,443434841,,"['front_left_wheel', 'front_right_wheel', 'rear_left_wheel', 'rear_right_wheel']",236.32344033918838,211.53240460327075,236.32344033918838,211.53240460327075,1.45366444579043,0.9085402786190188,1.45366444579043,0.9085402786190188,0.0,0.0,0.0,0.0
1737149048.2156653,5715,1737149125,542759290,,"['front_left_wheel', 'front_right_wheel', 'rear_left_wheel', 'rear_right_wheel']",236.450635978195,211.61720169594187,236.450635978195,211.61720169594187,1.45366444579043,0.9085402786190188,1.45366444579043,0.9085402786190188,0.0,0.0,0.0,0.0
1737149048.3159516,5716,1737149125,642270960,,"['front_left_wheel', 'front_right_wheel', 'rear_left_wheel', 'rear_right_wheel']",236.6020593579649,211.70199878861297,236.6020593579649,211.70199878861297,1.5142337976983646,0.8479709267110843,1.5142337976983646,0.8479709267110843,0.0,0.0,0.0,0.0
1737149048.4153528,5717,1737149125,741336591,,"['front_left_wheel', 'front_right_wheel', 'rear_left_wheel', 'rear_right_wheel']",236.7716535433071,211.7989097516657,236.7716535433071,211.7989097516657,1.5142337976983646,0.8479709267110843,1.5142337976983646,0.8479709267110843,0.0,0.0,0.0,0.0
1737149048.5142734,5718,1737149125,839879722,,"['front_left_wheel', 'front_right_wheel', 'rear_left_wheel', 'rear_right_wheel']",236.88673531193217,211.8655360387644,236.88673531193217,211.8655360387644,1.5748031496062993,0.7874015748031497,1.5748031496062993,0.7874015748031497,0.0,0.0,0.0,0.0
1737149048.6121428,5719,1737149125,939169863,,"['front_left_wheel', 'front_right_wheel', 'rear_left_wheel', 'rear_right_wheel']",237.068443367656,211.95639006662628,237.068443367656,211.95639006662628,1.5748031496062993,0.7874015748031497,1.5748031496062993,0.7874015748031497,0.0,0.0,0.0,0.0
1737149048.7105706,5720,1737149126,37501846,,"['front_left_wheel', 'front_right_wheel', 'rear_left_wheel', 'rear_right_wheel']",237.18958207147182,212.01090248334344,237.18958207147182,212.01090248334344,1.635372501514234,0.726832222895215,1.635372501514234,0.726832222895215,0.0,0.0,0.0,0.0
1737149048.8101997,5721,1737149126,136889764,,"['front_left_wheel', 'front_right_wheel', 'rear_left_wheel', 'rear_right_wheel']",237.37734706238646,212.09569957601457,237.37734706238646,212.09569957601457,1.6959418534221686,0.6662628709872804,1.6959418534221686,0.6662628709872804,0.0,0.0,0.0,0.0
1737149048.9089956,5722,1737149126,235673516,,"['front_left_wheel', 'front_right_wheel', 'rear_left_wheel', 'rear_right_wheel']",237.57116898849182,212.1683827983041,237.57116898849182,212.1683827983041,1.6959418534221686,0.6662628709872804,1.6959418534221686,0.6662628709872804,0.0,0.0,0.0,0.0
1737149049.0077426,5723,1737149126,334670577,,"['front_left_wheel', 'front_right_wheel', 'rear_left_wheel', 'rear_right_wheel']",237.7104784978801,212.228952150212,237.7104784978801,212.228952150212,1.6959418534221686,0.6056935190793459,1.6959418534221686,0.6056935190793459,0.0,0.0,0.0,0.0
1737149049.1182857,5724,1737149126,445477898,,"['front_left_wheel', 'front_right_wheel', 'rear_left_wheel', 'rear_right_wheel']",237.8982434887947,212.28952150211992,237.8982434887947,212.28952150211992,1.6959418534221686,0.6056935190793459,1.6959418534221686,0.6056935190793459,0.0,0.0,0.0,0.0
1737149049.2173736,5725,1737149126,544167237,,"['front_left_wheel', 'front_right_wheel', 'rear_left_wheel', 'rear_right_wheel']",238.10417928528165,212.35614778921868,238.10417928528165,212.35614778921868,1.8170805572380375,0.5451241671714112,1.8170805572380375,0.5451241671714112,0.0,0.0,0.0,0.0
1737149049.3162227,5726,1737149126,643270437,,"['front_left_wheel', 'front_right_wheel', 'rear_left_wheel', 'rear_right_wheel']",238.24348879466993,212.39854633555422,238.24348879466993,212.39854633555422,1.8170805572380375,0.5451241671714112,1.8170805572380375,0.5451241671714112,0.0,0.0,0.0,0.0
1737149049.4150696,5727,1737149126,742324846,,"['front_left_wheel', 'front_right_wheel', 'rear_left_wheel', 'rear_right_wheel']",238.44942459115688,212.45911568746214,238.44942459115688,212.45911568746214,1.8776499091459722,0.4845548152634767,1.8776499091459722,0.4845548152634767,0.0,0.0,0.0,0.0
1737149049.5144591,5728,1737149126,841048941,,"['front_left_wheel', 'front_right_wheel', 'rear_left_wheel', 'rear_right_wheel']",238.6008479709267,212.51362810417928,238.6008479709267,212.51362810417928,1.8776499091459722,0.4845548152634767,1.8776499091459722,0.4845548152634767,0.0,0.0,0.0,0.0
1737149049.615082,5729,1737149126,940308174,,"['front_left_wheel', 'front_right_wheel', 'rear_left_wheel', 'rear_right_wheel']",238.82495457298606,212.54996971532404,238.82495457298606,212.54996971532404,1.9382192610539069,0.42398546335554216,1.9382192610539069,0.42398546335554216,0.0,0.0,0.0,0.0
1737149049.7115023,5730,1737149127,38440811,,"['front_left_wheel', 'front_right_wheel', 'rear_left_wheel', 'rear_right_wheel']",239.03089036947304,212.59236826165957,239.03089036947304,212.59236826165957,1.9382192610539069,0.42398546335554216,1.9382192610539069,0.42398546335554216,0.0,0.0,0.0,0.0
1737149049.810831,5731,1737149127,137858571,,"['front_left_wheel', 'front_right_wheel', 'rear_left_wheel', 'rear_right_wheel']",239.21259842519686,212.62870987280434,239.21259842519686,212.62870987280434,1.9987886129618415,0.3634161114476075,1.9987886129618415,0.3634161114476075,0.0,0.0,0.0,0.0
1737149049.9101586,5732,1737149127,236953227,,"['front_left_wheel', 'front_right_wheel', 'rear_left_wheel', 'rear_right_wheel']",239.40642035130227,212.6650514839491,239.40642035130227,212.6650514839491,1.9987886129618415,0.3634161114476075,1.9987886129618415,0.3634161114476075,0.0,0.0,0.0,0.0
1737149050.0091796,5733,1737149127,336148330,,"['front_left_wheel', 'front_right_wheel', 'rear_left_wheel', 'rear_right_wheel']",239.61235614778923,212.70139309509386,239.61235614778923,212.70139309509386,2.059357964869776,0.30284675953967294,2.059357964869776,0.30284675953967294,0.0,0.0,0.0,0.0
1737149050.1079054,5734,1737149127,434649379,,"['front_left_wheel', 'front_right_wheel', 'rear_left_wheel', 'rear_right_wheel']",239.8061780738946,212.7256208358571,239.8061780738946,212.7256208358571,2.059357964869776,0.30284675953967294,2.059357964869776,0.30284675953967294,0.0,0.0,0.0,0.0
1737149050.2182307,5735,1737149127,545295976,,"['front_left_wheel', 'front_right_wheel', 'rear_left_wheel', 'rear_right_wheel']",240.05451241671716,212.76196244700185,240.05451241671716,212.76196244700185,2.1199273167777104,0.24227740763173836,2.1199273167777104,0.24227740763173836,0.0,0.0,0.0,0.0
1737149050.3168714,5736,1737149127,643572561,,"['front_left_wheel', 'front_right_wheel', 'rear_left_wheel', 'rear_right_wheel']",240.2786190187765,212.78013325257422,240.2786190187765,212.78013325257422,2.180496668685645,0.18170805572380375,2.180496668685645,0.18170805572380375,0.0,0.0,0.0,0.0
1737149050.4165976,5737,1737149127,743277615,,"['front_left_wheel', 'front_right_wheel', 'rear_left_wheel', 'rear_right_wheel']",240.4845548152635,212.79830405814658,240.4845548152635,212.79830405814658,2.180496668685645,0.18170805572380375,2.180496668685645,0.18170805572380375,0.0,0.0,0.0,0.0
1737149050.5154831,5738,1737149127,842351326,,"['front_left_wheel', 'front_right_wheel', 'rear_left_wheel', 'rear_right_wheel']",240.69654754694125,212.81647486371898,240.69654754694125,212.81647486371898,2.2410660205935797,0.12113870381586918,2.2410660205935797,0.12113870381586918,0.0,0.0,0.0,0.0
1737149050.614292,5739,1737149127,940883129,,"['front_left_wheel', 'front_right_wheel', 'rear_left_wheel', 'rear_right_wheel']",240.92065414900063,212.82858873410055,240.92065414900063,212.82858873410055,2.2410660205935797,0.12113870381586918,2.2410660205935797,0.12113870381586918,0.0,0.0,0.0,0.0
1737149050.7137005,5740,1737149128,39901904,,"['front_left_wheel', 'front_right_wheel', 'rear_left_wheel', 'rear_right_wheel']",241.12053301029678,212.84070260448215,241.12053301029678,212.84070260448215,2.301635372501514,0.06056935190793459,2.301635372501514,0.06056935190793459,0.0,0.0,0.0,0.0
1737149050.8115678,5741,1737149128,138829699,,"['front_left_wheel', 'front_right_wheel', 'rear_left_wheel', 'rear_right_wheel']",241.3809812235009,212.84675953967292,241.3809812235009,212.84675953967292,2.301635372501514,0.06056935190793459,2.301635372501514,0.06056935190793459,0.0,0.0,0.0,0.0
1737149050.91119,5742,1737149128,238018623,,"['front_left_wheel', 'front_right_wheel', 'rear_left_wheel', 'rear_right_wheel']",241.5626892792247,212.85281647486374,241.5626892792247,212.85281647486374,2.362204724409449,0.0,2.362204724409449,0.0,0.0,0.0,0.0,0.0
1737149051.010357,5743,1737149128,337023347,,"['front_left_wheel', 'front_right_wheel', 'rear_left_wheel', 'rear_right_wheel']",241.8413082980012,212.8709872804361,241.8413082980012,212.8709872804361,2.362204724409449,0.0,2.362204724409449,0.0,0.0,0.0,0.0,0.0
1737149051.1083422,5744,1737149128,435679483,,"['front_left_wheel', 'front_right_wheel', 'rear_left_wheel', 'rear_right_wheel']",242.05935796486978,212.8891580860085,242.05935796486978,212.8891580860085,2.4227740763173835,0.0,2.4227740763173835,0.0,0.0,0.0,0.0,0.0
1737149051.2071834,5745,1737149128,534345082,,"['front_left_wheel', 'front_right_wheel', 'rear_left_wheel', 'rear_right_wheel']",242.28346456692913,212.90732889158087,242.28346456692913,212.90732889158087,2.4227740763173835,0.0,2.4227740763173835,0.0,0.0,0.0,0.0,0.0
1737149051.3173814,5746,1737149128,644348941,,"['front_left_wheel', 'front_right_wheel', 'rear_left_wheel', 'rear_right_wheel']",242.5620835857056,212.91944276196244,242.5620835857056,212.91944276196244,2.483343428225318,-0.06056935190793459,2.483343428225318,-0.06056935190793459,0.0,0.0,0.0,0.0
1737149051.416734,5747,1737149128,743595307,,"['front_left_wheel', 'front_right_wheel', 'rear_left_wheel', 'rear_right_wheel']",242.84675953967295,212.91338582677167,242.84675953967295,212.91338582677167,2.483343428225318,-0.06056935190793459,2.483343428225318,-0.06056935190793459,0.0,0.0,0.0,0.0
1737149051.5165117,5748,1737149128,843390109,,"['front_left_wheel', 'front_right_wheel', 'rear_left_wheel', 'rear_right_wheel']",243.04663840096913,212.90732889158087,243.04663840096913,212.90732889158087,2.5439127801332524,-0.12113870381586918,2.5439127801332524,-0.12113870381586918,0.0,0.0,0.0,0.0
1737149051.6152008,5749,1737149128,942204464,,"['front_left_wheel', 'front_right_wheel', 'rear_left_wheel', 'rear_right_wheel']",243.3252574197456,212.89521502119928,243.3252574197456,212.89521502119928,2.6044821320411873,-0.18170805572380375,2.6044821320411873,-0.18170805572380375,0.0,0.0,0.0,0.0
1737149051.714066,5750,1737149129,40619065,,"['front_left_wheel', 'front_right_wheel', 'rear_left_wheel', 'rear_right_wheel']",243.55542095699576,212.8770442156269,243.55542095699576,212.8770442156269,2.6044821320411873,-0.18170805572380375,2.6044821320411873,-0.18170805572380375,0.0,0.0,0.0,0.0
1737149051.81434,5751,1737149129,140090988,,"['front_left_wheel', 'front_right_wheel', 'rear_left_wheel', 'rear_right_wheel']",243.8219261053907,212.8588734100545,243.8219261053907,212.8588734100545,2.6650514839491217,-0.24227740763173836,2.6650514839491217,-0.24227740763173836,0.0,0.0,0.0,0.0
1737149051.9115257,5752,1737149129,238638464,,"['front_left_wheel', 'front_right_wheel', 'rear_left_wheel', 'rear_right_wheel']",244.12477286493035,212.82858873410055,244.12477286493035,212.82858873410055,2.6650514839491217,-0.24227740763173836,2.6650514839491217,-0.24227740763173836,0.0,0.0,0.0,0.0
1737149052.0113082,5753,1737149129,338120089,,"['front_left_wheel', 'front_right_wheel', 'rear_left_wheel', 'rear_right_wheel']",244.33070866141733,212.81041792852815,244.33070866141733,212.81041792852815,2.7256208358570566,-0.30284675953967294,2.7256208358570566,-0.30284675953967294,0.0,0.0,0.0,0.0
1737149052.1098568,5754,1737149129,436764853,,"['front_left_wheel', 'front_right_wheel', 'rear_left_wheel', 'rear_right_wheel']",244.6396123561478,212.7740763173834,244.6396123561478,212.7740763173834,2.7256208358570566,-0.30284675953967294,2.7256208358570566,-0.30284675953967294,0.0,0.0,0.0,0.0
1737149052.2085276,5755,1737149129,535595471,,"['front_left_wheel', 'front_right_wheel', 'rear_left_wheel', 'rear_right_wheel']",244.88188976377953,212.74984857662022,244.88188976377953,212.74984857662022,2.786190187764991,-0.3634161114476075,2.786190187764991,-0.3634161114476075,0.0,0.0,0.0,0.0
1737149052.3076053,5756,1737149129,634418407,,"['front_left_wheel', 'front_right_wheel', 'rear_left_wheel', 'rear_right_wheel']",245.1665657177468,212.7074500302847,245.1665657177468,212.7074500302847,2.786190187764991,-0.3634161114476075,2.786190187764991,-0.3634161114476075,0.0,0.0,0.0,0.0
1737149052.4171467,5757,1737149129,744446513,,"['front_left_wheel', 'front_right_wheel', 'rear_left_wheel', 'rear_right_wheel']",245.48758328285888,212.6650514839491,245.48758328285888,212.6650514839491,2.8467595396729255,-0.42398546335554216,2.8467595396729255,-0.42398546335554216,0.0,0.0,0.0,0.0
1737149052.5171797,5758,1737149129,843529556,,"['front_left_wheel', 'front_right_wheel', 'rear_left_wheel', 'rear_right_wheel']",245.77225923682616,212.6165960024228,245.77225923682616,212.6165960024228,2.8467595396729255,-0.42398546335554216,2.8467595396729255,-0.42398546335554216,0.0,0.0,0.0,0.0
1737149052.6166208,5759,1737149129,943373981,,"['front_left_wheel', 'front_right_wheel', 'rear_left_wheel', 'rear_right_wheel']",246.0266505148395,212.5863113264688,246.0266505148395,212.5863113264688,2.90732889158086,-0.4845548152634767,2.90732889158086,-0.4845548152634767,0.0,0.0,0.0,0.0
1737149052.7141235,5760,1737149130,41385734,,"['front_left_wheel', 'front_right_wheel', 'rear_left_wheel', 'rear_right_wheel']",246.35978195033314,212.53179890975167,246.35978195033314,212.53179890975167,2.90732889158086,-0.4845548152634767,2.90732889158086,-0.4845548152634767,0.0,0.0,0.0,0.0
1737149052.814255,5761,1737149130,140531387,,"['front_left_wheel', 'front_right_wheel', 'rear_left_wheel', 'rear_right_wheel']",246.5838885523925,212.4894003634161,246.5838885523925,212.4894003634161,2.967898243488795,-0.5451241671714112,2.967898243488795,-0.5451241671714112,0.0,0.0,0.0,0.0
1737149052.913234,5762,1737149130,239993224,,"['front_left_wheel', 'front_right_wheel', 'rear_left_wheel', 'rear_right_wheel']",246.92307692307693,212.4288310115082,246.92307692307693,212.4288310115082,2.967898243488795,-0.5451241671714112,2.967898243488795,-0.5451241671714112,0.0,0.0,0.0,0.0
1737149053.0122738,5763,1737149130,339376555,,"['front_left_wheel', 'front_right_wheel', 'rear_left_wheel', 'rear_right_wheel']",247.26226529376137,212.36220472440945,247.26226529376137,212.36220472440945,3.0284675953967293,-0.6056935190793459,3.0284675953967293,-0.6056935190793459,0.0,0.0,0.0,0.0
1737149053.1102805,5764,1737149130,437756439,,"['front_left_wheel', 'front_right_wheel', 'rear_left_wheel', 'rear_right_wheel']",247.4924288310115,212.3137492428831,247.4924288310115,212.3137492428831,3.089036947304664,-0.6662628709872804,3.089036947304664,-0.6662628709872804,0.0,0.0,0.0,0.0
1737149053.2092345,5765,1737149130,536565300,,"['front_left_wheel', 'front_right_wheel', 'rear_left_wheel', 'rear_right_wheel']",247.84978800726833,212.24106602059356,247.84978800726833,212.24106602059356,3.089036947304664,-0.6662628709872804,3.089036947304664,-0.6662628709872804,0.0,0.0,0.0,0.0
1737149053.316009,5766,1737149130,635404063,,"['front_left_wheel', 'front_right_wheel', 'rear_left_wheel', 'rear_right_wheel']",248.08600847970928,212.18655360387643,248.08600847970928,212.18655360387643,3.1496062992125986,-0.726832222895215,3.1496062992125986,-0.726832222895215,0.0,0.0,0.0,0.0
1737149053.4077103,5767,1737149130,734631607,,"['front_left_wheel', 'front_right_wheel', 'rear_left_wheel', 'rear_right_wheel']",248.44336765596609,212.1078134463961,248.44336765596609,212.1078134463961,3.1496062992125986,-0.726832222895215,3.1496062992125986,-0.726832222895215,0.0,0.0,0.0,0.0
1737149053.5177908,5768,1737149130,844834513,,"['front_left_wheel', 'front_right_wheel', 'rear_left_wheel', 'rear_right_wheel']",248.8128407026045,212.0169594185342,248.8128407026045,212.0169594185342,3.210175651120533,-0.7874015748031497,3.210175651120533,-0.7874015748031497,0.0,0.0,0.0,0.0
1737149053.6175063,5769,1737149130,944374584,,"['front_left_wheel', 'front_right_wheel', 'rear_left_wheel', 'rear_right_wheel']",249.07934585099937,211.9503331314355,249.07934585099937,211.9503331314355,3.210175651120533,-0.7874015748031497,3.210175651120533,-0.7874015748031497,0.0,0.0,0.0,0.0
1737149053.7157817,5770,1737149131,42958074,,"['front_left_wheel', 'front_right_wheel', 'rear_left_wheel', 'rear_right_wheel']",249.4548758328286,211.8534221683828,249.4548758328286,211.8534221683828,3.270745003028468,-0.8479709267110843,3.270745003028468,-0.8479709267110843,0.0,0.0,0.0,0.0
1737149053.8219583,5771,1737149131,142124321,,"['front_left_wheel', 'front_right_wheel', 'rear_left_wheel', 'rear_right_wheel']",249.78800726832225,211.7686250757117,249.78800726832225,211.7686250757117,3.270745003028468,-0.8479709267110843,3.270745003028468,-0.8479709267110843,0.0,0.0,0.0,0.0
1737149053.9136522,5772,1737149131,241012569,,"['front_left_wheel', 'front_right_wheel', 'rear_left_wheel', 'rear_right_wheel']",250.1090248334343,211.68382798304057,250.1090248334343,211.68382798304057,3.3313143549364024,-0.9085402786190188,3.3313143549364024,-0.9085402786190188,0.0,0.0,0.0,0.0
1737149054.0137267,5773,1737149131,340184942,,"['front_left_wheel', 'front_right_wheel', 'rear_left_wheel', 'rear_right_wheel']",250.41792852816477,211.59903089036948,250.41792852816477,211.59903089036948,3.3313143549364024,-0.9085402786190188,3.3313143549364024,-0.9085402786190188,0.0,0.0,0.0,0.0
1737149054.1116447,5774,1737149131,438763493,,"['front_left_wheel', 'front_right_wheel', 'rear_left_wheel', 'rear_right_wheel']",250.69654754694125,211.49606299212599,250.69654754694125,211.49606299212599,3.3918837068443373,-0.9691096305269534,3.3918837068443373,-0.9691096305269534,0.0,0.0,0.0,0.0
1737149054.2100275,5775,1737149131,537439211,,"['front_left_wheel', 'front_right_wheel', 'rear_left_wheel', 'rear_right_wheel']",251.09630526953364,211.4112658994549,251.09630526953364,211.4112658994549,3.3918837068443373,-0.9691096305269534,3.3918837068443373,-0.9691096305269534,0.0,0.0,0.0,0.0
1737149054.3094196,5776,1737149131,636909272,,"['front_left_wheel', 'front_right_wheel', 'rear_left_wheel', 'rear_right_wheel']",251.44760751059965,211.3082980012114,251.44760751059965,211.3082980012114,3.3918837068443373,-1.029678982434888,3.3918837068443373,-1.029678982434888,0.0,0.0,0.0,0.0
1737149054.4082537,5777,1737149131,735712270,,"['front_left_wheel', 'front_right_wheel', 'rear_left_wheel', 'rear_right_wheel']",251.77468201090247,211.2113870381587,251.77468201090247,211.2113870381587,3.3918837068443373,-1.029678982434888,3.3918837068443373,-1.029678982434888,0.0,0.0,0.0,0.0
1737149054.508004,5778,1737149131,834331237,,"['front_left_wheel', 'front_right_wheel', 'rear_left_wheel', 'rear_right_wheel']",252.1078134463961,211.1084191399152,252.1078134463961,211.1084191399152,3.4524530587522713,-1.0902483343428224,3.4524530587522713,-1.0902483343428224,0.0,0.0,0.0,0.0
1737149054.6175256,5779,1737149131,944814953,,"['front_left_wheel', 'front_right_wheel', 'rear_left_wheel', 'rear_right_wheel']",252.5075711689885,210.98122350090853,252.5075711689885,210.98122350090853,3.5735917625681406,-1.150817686250757,3.5735917625681406,-1.150817686250757,0.0,0.0,0.0,0.0
1737149054.7170634,5780,1737149132,44315391,,"['front_left_wheel', 'front_right_wheel', 'rear_left_wheel', 'rear_right_wheel']",252.786190187765,210.89642640823746,252.786190187765,210.89642640823746,3.634161114476075,-1.2113870381586918,3.634161114476075,-1.2113870381586918,0.0,0.0,0.0,0.0
1737149054.8168275,5781,1737149132,143325386,,"['front_left_wheel', 'front_right_wheel', 'rear_left_wheel', 'rear_right_wheel']",253.19806178073893,210.75711689884918,253.19806178073893,210.75711689884918,3.634161114476075,-1.2113870381586918,3.634161114476075,-1.2113870381586918,0.0,0.0,0.0,0.0
1737149054.9144847,5782,1737149132,242095422,,"['front_left_wheel', 'front_right_wheel', 'rear_left_wheel', 'rear_right_wheel']",253.60993337371292,210.61780738946095,253.60993337371292,210.61780738946095,3.634161114476075,-1.2113870381586918,3.634161114476075,-1.2113870381586918,0.0,0.0,0.0,0.0
1737149055.0141857,5783,1737149132,341178262,,"['front_left_wheel', 'front_right_wheel', 'rear_left_wheel', 'rear_right_wheel']",253.91278013325257,210.51483949121746,253.91278013325257,210.51483949121746,3.6947304663840095,-1.2719563900666262,3.6947304663840095,-1.2719563900666262,0.0,0.0,0.0,0.0
1737149055.1131659,5784,1737149132,439882575,,"['front_left_wheel', 'front_right_wheel', 'rear_left_wheel', 'rear_right_wheel']",254.30648092065414,210.38158691702,254.30648092065414,210.38158691702,3.6947304663840095,-1.2719563900666262,3.6947304663840095,-1.2719563900666262,0.0,0.0,0.0,0.0
1737149055.2115712,5785,1737149132,538631709,,"['front_left_wheel', 'front_right_wheel', 'rear_left_wheel', 'rear_right_wheel']",254.59115687462145,210.2846759539673,254.59115687462145,210.2846759539673,3.7552998182919444,-1.3325257419745609,3.7552998182919444,-1.3325257419745609,0.0,0.0,0.0,0.0
1737149055.3112142,5786,1737149132,638134014,,"['front_left_wheel', 'front_right_wheel', 'rear_left_wheel', 'rear_right_wheel']",255.02119927316778,210.13325257419746,255.02119927316778,210.13325257419746,3.7552998182919444,-1.3325257419745609,3.7552998182919444,-1.3325257419745609,0.0,0.0,0.0,0.0
1737149055.4094074,5787,1737149132,736603447,,"['front_left_wheel', 'front_right_wheel', 'rear_left_wheel', 'rear_right_wheel']",255.4512416717141,209.97577225923683,255.4512416717141,209.97577225923683,3.815869170199879,-1.3930950938824955,3.815869170199879,-1.3930950938824955,0.0,0.0,0.0,0.0
1737149055.5091028,5788,1737149132,835897207,,"['front_left_wheel', 'front_right_wheel', 'rear_left_wheel', 'rear_right_wheel']",255.7601453664446,209.86069049061177,255.7601453664446,209.86069049061177,3.815869170199879,-1.3930950938824955,3.815869170199879,-1.3930950938824955,0.0,0.0,0.0,0.0
1737149055.6079874,5789,1737149132,934462645,,"['front_left_wheel', 'front_right_wheel', 'rear_left_wheel', 'rear_right_wheel']",256.1780738946093,209.7092671108419,256.1780738946093,209.7092671108419,3.8764385221078137,-1.45366444579043,3.8764385221078137,-1.45366444579043,0.0,0.0,0.0,0.0
1737149055.7180212,5790,1737149133,45189228,,"['front_left_wheel', 'front_right_wheel', 'rear_left_wheel', 'rear_right_wheel']",256.62023016353726,209.54572986069047,256.62023016353726,209.54572986069047,3.8764385221078137,-1.45366444579043,3.8764385221078137,-1.45366444579043,0.0,0.0,0.0,0.0
1737149055.8166568,5791,1737149133,144165567,,"['front_left_wheel', 'front_right_wheel', 'rear_left_wheel', 'rear_right_wheel']",256.98970321017566,209.40036341611147,256.98970321017566,209.40036341611147,3.997577225923683,-1.5748031496062993,3.997577225923683,-1.5748031496062993,0.0,0.0,0.0,0.0
1737149055.9158664,5792,1737149133,243066273,,"['front_left_wheel', 'front_right_wheel', 'rear_left_wheel', 'rear_right_wheel']",257.3712901271956,209.2489400363416,257.3712901271956,209.2489400363416,3.997577225923683,-1.5748031496062993,3.997577225923683,-1.5748031496062993,0.0,0.0,0.0,0.0
1737149056.0150814,5793,1737149133,342177992,,"['front_left_wheel', 'front_right_wheel', 'rear_left_wheel', 'rear_right_wheel']",257.8316172016959,209.0732889158086,257.8316172016959,209.0732889158086,3.997577225923683,-1.5748031496062993,3.997577225923683,-1.5748031496062993,0.0,0.0,0.0,0.0
1737149056.1141498,5794,1737149133,441413718,,"['front_left_wheel', 'front_right_wheel', 'rear_left_wheel', 'rear_right_wheel']",258.1647486371896,208.93397940642035,258.1647486371896,208.93397940642035,4.058146577831618,-1.635372501514234,4.058146577831618,-1.635372501514234,0.0,0.0,0.0,0.0
1737149056.2120667,5795,1737149133,539351942,,"['front_left_wheel', 'front_right_wheel', 'rear_left_wheel', 'rear_right_wheel']",258.59479103573597,208.76438522107813,258.59479103573597,208.76438522107813,4.058146577831618,-1.635372501514234,4.058146577831618,-1.635372501514234,0.0,0.0,0.0,0.0
1737149056.3112266,5796,1737149133,638772228,,"['front_left_wheel', 'front_right_wheel', 'rear_left_wheel', 'rear_right_wheel']",258.97032101756514,208.60690490611753,258.97032101756514,208.60690490611753,4.118715929739552,-1.6959418534221686,4.118715929739552,-1.6959418534221686,0.0,0.0,0.0,0.0
1737149056.4103217,5797,1737149133,737800201,,"['front_left_wheel', 'front_right_wheel', 'rear_left_wheel', 'rear_right_wheel']",259.3700787401575,208.44942459115688,259.3700787401575,208.44942459115688,4.118715929739552,-1.6959418534221686,4.118715929739552,-1.6959418534221686,0.0,0.0,0.0,0.0
1737149056.509999,5798,1737149133,837441833,,"['front_left_wheel', 'front_right_wheel', 'rear_left_wheel', 'rear_right_wheel']",259.84251968503935,208.24954572986067,259.84251968503935,208.24954572986067,4.179285281647486,-1.6959418534221686,4.179285281647486,-1.6959418534221686,0.0,0.0,0.0,0.0
1737149056.6081378,5799,1737149133,935569773,,"['front_left_wheel', 'front_right_wheel', 'rear_left_wheel', 'rear_right_wheel']",260.1635372501514,208.11629315566324,260.1635372501514,208.11629315566324,4.179285281647486,-1.6959418534221686,4.179285281647486,-1.6959418534221686,0.0,0.0,0.0,0.0
1737149056.7073298,5800,1737149134,34470731,,"['front_left_wheel', 'front_right_wheel', 'rear_left_wheel', 'rear_right_wheel']",260.6359781950333,207.91641429436703,260.6359781950333,207.91641429436703,4.239854633555421,-1.8170805572380375,4.239854633555421,-1.8170805572380375,0.0,0.0,0.0,0.0
1737149056.8172202,5801,1737149134,144339436,,"['front_left_wheel', 'front_right_wheel', 'rear_left_wheel', 'rear_right_wheel']",261.12053301029675,207.71047849788008,261.12053301029675,207.71047849788008,4.239854633555421,-1.8170805572380375,4.239854633555421,-1.8170805572380375,0.0,0.0,0.0,0.0
1737149056.916265,5802,1737149134,243383078,,"['front_left_wheel', 'front_right_wheel', 'rear_left_wheel', 'rear_right_wheel']",261.45972138098125,207.55905511811025,261.45972138098125,207.55905511811025,4.300423985463356,-1.8776499091459722,4.300423985463356,-1.8776499091459722,0.0,0.0,0.0,0.0
1737149057.0153227,5803,1737149134,342624436,,"['front_left_wheel', 'front_right_wheel', 'rear_left_wheel', 'rear_right_wheel']",261.9624470018171,207.34100545124167,261.9624470018171,207.34100545124167,4.300423985463356,-1.8776499091459722,4.300423985463356,-1.8776499091459722,0.0,0.0,0.0,0.0
1737149057.1143155,5804,1737149134,441467762,,"['front_left_wheel', 'front_right_wheel', 'rear_left_wheel', 'rear_right_wheel']",262.36826165960025,207.1411265899455,262.36826165960025,207.1411265899455,4.36099333737129,-1.9382192610539069,4.36099333737129,-1.9382192610539069,0.0,0.0,0.0,0.0
1737149057.2132668,5805,1737149134,540777689,,"['front_left_wheel', 'front_right_wheel', 'rear_left_wheel', 'rear_right_wheel']",262.7619624470018,206.99576014536643,262.7619624470018,206.99576014536643,4.36099333737129,-1.9382192610539069,4.36099333737129,-1.9382192610539069,0.0,0.0,0.0,0.0
1737149057.3131,5806,1737149134,639856201,,"['front_left_wheel', 'front_right_wheel', 'rear_left_wheel', 'rear_right_wheel']",263.2586311326469,206.77165354330708,263.2586311326469,206.77165354330708,4.421562689279225,-1.9987886129618415,4.421562689279225,-1.9987886129618415,0.0,0.0,0.0,0.0
1737149057.4118958,5807,1737149134,739145051,,"['front_left_wheel', 'front_right_wheel', 'rear_left_wheel', 'rear_right_wheel']",263.6038764385221,206.60811629315566,263.6038764385221,206.60811629315566,4.4821320411871595,-2.059357964869776,4.4821320411871595,-2.059357964869776,0.0,0.0,0.0,0.0
1737149057.5105047,5808,1737149134,837691899,,"['front_left_wheel', 'front_right_wheel', 'rear_left_wheel', 'rear_right_wheel']",264.13082980012115,206.3658388855239,264.13082980012115,206.3658388855239,4.4821320411871595,-2.059357964869776,4.4821320411871595,-2.059357964869776,0.0,0.0,0.0,0.0
1737149057.609777,5809,1737149134,936995566,,"['front_left_wheel', 'front_right_wheel', 'rear_left_wheel', 'rear_right_wheel']",264.6214415505754,206.14778921865533,264.6214415505754,206.14778921865533,4.542701393095094,-2.1199273167777104,4.542701393095094,-2.1199273167777104,0.0,0.0,0.0,0.0
1737149057.7093434,5810,1737149135,35407535,,"['front_left_wheel', 'front_right_wheel', 'rear_left_wheel', 'rear_right_wheel']",265.0211992731678,205.95396729254998,265.0211992731678,205.95396729254998,4.542701393095094,-2.1199273167777104,4.542701393095094,-2.1199273167777104,0.0,0.0,0.0,0.0
1737149057.8071735,5811,1737149135,134367442,,"['front_left_wheel', 'front_right_wheel', 'rear_left_wheel', 'rear_right_wheel']",265.4875832828589,205.74197456087222,265.4875832828589,205.74197456087222,4.603270745003028,-2.180496668685645,4.603270745003028,-2.180496668685645,0.0,0.0,0.0,0.0
1737149057.9183922,5812,1737149135,245398521,,"['front_left_wheel', 'front_right_wheel', 'rear_left_wheel', 'rear_right_wheel']",266.00847970926714,205.49364021804968,266.00847970926714,205.49364021804968,4.603270745003028,-2.180496668685645,4.603270745003028,-2.180496668685645,0.0,0.0,0.0,0.0
1737149058.016768,5813,1737149135,344191065,,"['front_left_wheel', 'front_right_wheel', 'rear_left_wheel', 'rear_right_wheel']",266.3597819503331,205.32404603270746,266.3597819503331,205.32404603270746,4.663840096910963,-2.2410660205935797,4.663840096910963,-2.2410660205935797,0.0,0.0,0.0,0.0
1737149058.1158767,5814,1737149135,443237631,,"['front_left_wheel', 'front_right_wheel', 'rear_left_wheel', 'rear_right_wheel']",266.89279224712294,205.0696547546941,266.89279224712294,205.0696547546941,4.663840096910963,-2.2410660205935797,4.663840096910963,-2.2410660205935797,0.0,0.0,0.0,0.0
1737149058.2158527,5815,1737149135,542236486,,"['front_left_wheel', 'front_right_wheel', 'rear_left_wheel', 'rear_right_wheel']",267.3046638400969,204.86371895820716,267.3046638400969,204.86371895820716,4.724409448818898,-2.301635372501514,4.724409448818898,-2.301635372501514,0.0,0.0,0.0,0.0
1737149058.314534,5816,1737149135,641341912,,"['front_left_wheel', 'front_right_wheel', 'rear_left_wheel', 'rear_right_wheel']",267.7831617201696,204.6396123561478,267.7831617201696,204.6396123561478,4.724409448818898,-2.301635372501514,4.724409448818898,-2.301635372501514,0.0,0.0,0.0,0.0
1737149058.4130487,5817,1737149135,739539458,,"['front_left_wheel', 'front_right_wheel', 'rear_left_wheel', 'rear_right_wheel']",268.328285887341,204.37310720775287,268.328285887341,204.37310720775287,4.784978800726832,-2.362204724409449,4.784978800726832,-2.362204724409449,0.0,0.0,0.0,0.0
1737149058.512123,5818,1737149135,839171081,,"['front_left_wheel', 'front_right_wheel', 'rear_left_wheel', 'rear_right_wheel']",268.6917019987886,204.1913991520291,268.6917019987886,204.1913991520291,4.784978800726832,-2.362204724409449,4.784978800726832,-2.362204724409449,0.0,0.0,0.0,0.0
1737149058.6104853,5819,1737149135,937516030,,"['front_left_wheel', 'front_right_wheel', 'rear_left_wheel', 'rear_right_wheel']",269.23682616596005,203.92489400363417,269.23682616596005,203.92489400363417,4.845548152634767,-2.4227740763173835,4.845548152634767,-2.4227740763173835,0.0,0.0,0.0,0.0
1737149058.7109342,5820,1737149136,37080550,,"['front_left_wheel', 'front_right_wheel', 'rear_left_wheel', 'rear_right_wheel']",269.60629921259846,203.64627498485765,269.60629921259846,203.64627498485765,4.906117504542702,-2.483343428225318,4.906117504542702,-2.483343428225318,0.0,0.0,0.0,0.0
1737149058.8090553,5821,1737149136,135574532,,"['front_left_wheel', 'front_right_wheel', 'rear_left_wheel', 'rear_right_wheel']",270.1635372501514,203.4524530587523,270.1635372501514,203.4524530587523,4.906117504542702,-2.483343428225318,4.906117504542702,-2.483343428225318,0.0,0.0,0.0,0.0
1737149058.9080193,5822,1737149136,234869083,,"['front_left_wheel', 'front_right_wheel', 'rear_left_wheel', 'rear_right_wheel']",270.7268322228952,203.167777104785,270.7268322228952,203.167777104785,4.966686856450636,-2.5439127801332524,4.966686856450636,-2.5439127801332524,0.0,0.0,0.0,0.0
1737149059.0173988,5823,1737149136,344615835,,"['front_left_wheel', 'front_right_wheel', 'rear_left_wheel', 'rear_right_wheel']",271.290127195639,202.87704421562688,271.290127195639,202.87704421562688,4.966686856450636,-2.5439127801332524,4.966686856450636,-2.5439127801332524,0.0,0.0,0.0,0.0
1737149059.116619,5824,1737149136,444082426,,"['front_left_wheel', 'front_right_wheel', 'rear_left_wheel', 'rear_right_wheel']",271.671714112659,202.68322228952152,271.671714112659,202.68322228952152,5.027256208358571,-2.6044821320411873,5.027256208358571,-2.6044821320411873,0.0,0.0,0.0,0.0
1737149059.216044,5825,1737149136,543237078,,"['front_left_wheel', 'front_right_wheel', 'rear_left_wheel', 'rear_right_wheel']",272.2471229557844,202.38643246517265,272.2471229557844,202.38643246517265,5.027256208358571,-2.6044821320411873,5.027256208358571,-2.6044821320411873,0.0,0.0,0.0,0.0
1737149059.3168457,5826,1737149136,641842943,,"['front_left_wheel', 'front_right_wheel', 'rear_left_wheel', 'rear_right_wheel']",272.6287098728044,202.18655360387643,272.6287098728044,202.18655360387643,5.087825560266505,-2.6650514839491217,5.087825560266505,-2.6650514839491217,0.0,0.0,0.0,0.0
1737149059.4141092,5827,1737149136,740849570,,"['front_left_wheel', 'front_right_wheel', 'rear_left_wheel', 'rear_right_wheel']",273.2162325863113,201.8715929739552,273.2162325863113,201.8715929739552,5.087825560266505,-2.6650514839491217,5.087825560266505,-2.6650514839491217,0.0,0.0,0.0,0.0
1737149059.5128348,5828,1737149136,840130469,,"['front_left_wheel', 'front_right_wheel', 'rear_left_wheel', 'rear_right_wheel']",273.7916414294367,201.58086008479708,273.7916414294367,201.58086008479708,5.14839491217444,-2.7256208358570566,5.14839491217444,-2.7256208358570566,0.0,0.0,0.0,0.0
1737149059.6115482,5829,1737149136,938956394,,"['front_left_wheel', 'front_right_wheel', 'rear_left_wheel', 'rear_right_wheel']",274.23379769836464,201.33858267716536,274.23379769836464,201.33858267716536,5.14839491217444,-2.7256208358570566,5.14839491217444,-2.7256208358570566,0.0,0.0,0.0,0.0
1737149059.7100422,5830,1737149137,37617082,,"['front_left_wheel', 'front_right_wheel', 'rear_left_wheel', 'rear_right_wheel']",274.76680799515447,201.05996365838885,274.76680799515447,201.05996365838885,5.208964264082375,-2.786190187764991,5.208964264082375,-2.786190187764991,0.0,0.0,0.0,0.0
1737149059.808894,5831,1737149137,136480049,,"['front_left_wheel', 'front_right_wheel', 'rear_left_wheel', 'rear_right_wheel']",275.25741974560873,200.78740157480314,275.25741974560873,200.78740157480314,5.208964264082375,-2.786190187764991,5.208964264082375,-2.786190187764991,0.0,0.0,0.0,0.0
1737149059.9081306,5832,1737149137,235481236,,"['front_left_wheel', 'front_right_wheel', 'rear_left_wheel', 'rear_right_wheel']",275.7601453664446,200.52695336159903,275.7601453664446,200.52695336159903,5.269533615990309,-2.8467595396729255,5.269533615990309,-2.8467595396729255,0.0,0.0,0.0,0.0
1737149060.007454,5833,1737149137,334843783,,"['front_left_wheel', 'front_right_wheel', 'rear_left_wheel', 'rear_right_wheel']",276.3597819503332,200.19987886129618,276.3597819503332,200.19987886129618,5.269533615990309,-2.8467595396729255,5.269533615990309,-2.8467595396729255,0.0,0.0,0.0,0.0
1737149060.1175935,5834,1737149137,445366350,,"['front_left_wheel', 'front_right_wheel', 'rear_left_wheel', 'rear_right_wheel']",276.96547546941247,199.87280436099334,276.96547546941247,199.87280436099334,5.3301029678982434,-2.90732889158086,5.3301029678982434,-2.90732889158086,0.0,0.0,0.0,0.0
1737149060.2168458,5835,1737149137,544221009,,"['front_left_wheel', 'front_right_wheel', 'rear_left_wheel', 'rear_right_wheel']",277.43791641429436,199.60629921259843,277.43791641429436,199.60629921259843,5.390672319806178,-2.967898243488795,5.390672319806178,-2.967898243488795,0.0,0.0,0.0,0.0
1737149060.3154082,5836,1737149137,642873782,,"['front_left_wheel', 'front_right_wheel', 'rear_left_wheel', 'rear_right_wheel']",277.98909751665656,199.31556632344032,277.98909751665656,199.31556632344032,5.390672319806178,-2.967898243488795,5.390672319806178,-2.967898243488795,0.0,0.0,0.0,0.0
1737149060.4145873,5837,1737149137,741928959,,"['front_left_wheel', 'front_right_wheel', 'rear_left_wheel', 'rear_right_wheel']",278.5099939430648,199.01877649909144,278.5099939430648,199.01877649909144,5.451241671714113,-3.0284675953967293,5.451241671714113,-3.0284675953967293,0.0,0.0,0.0,0.0
1737149060.5137944,5838,1737149137,840984018,,"['front_left_wheel', 'front_right_wheel', 'rear_left_wheel', 'rear_right_wheel']",279.0187764990915,198.74015748031496,279.0187764990915,198.74015748031496,5.451241671714113,-3.0284675953967293,5.451241671714113,-3.0284675953967293,0.0,0.0,0.0,0.0
1737149060.6125112,5839,1737149137,939988454,,"['front_left_wheel', 'front_right_wheel', 'rear_left_wheel', 'rear_right_wheel']",279.6426408237432,198.39491217443975,279.6426408237432,198.39491217443975,5.511811023622047,-3.089036947304664,5.511811023622047,-3.089036947304664,0.0,0.0,0.0,0.0
1737149060.7112076,5840,1737149138,38801481,,"['front_left_wheel', 'front_right_wheel', 'rear_left_wheel', 'rear_right_wheel']",280.06056935190793,198.1586917019988,280.06056935190793,198.1586917019988,5.511811023622047,-3.089036947304664,5.511811023622047,-3.089036947304664,0.0,0.0,0.0,0.0
1737149060.8107793,5841,1737149138,138294683,,"['front_left_wheel', 'front_right_wheel', 'rear_left_wheel', 'rear_right_wheel']",280.69654754694125,197.80133252574197,280.69654754694125,197.80133252574197,5.572380375529982,-3.1496062992125986,5.572380375529982,-3.1496062992125986,0.0,0.0,0.0,0.0
1737149060.909459,5842,1737149138,236579587,,"['front_left_wheel', 'front_right_wheel', 'rear_left_wheel', 'rear_right_wheel']",281.14476075106,197.54694124772865,281.14476075106,197.54694124772865,5.572380375529982,-3.1496062992125986,5.572380375529982,-3.1496062992125986,0.0,0.0,0.0,0.0
1737149061.0090365,5843,1737149138,336419701,,"['front_left_wheel', 'front_right_wheel', 'rear_left_wheel', 'rear_right_wheel']",281.79890975166563,197.17141126589945,281.79890975166563,197.17141126589945,5.632949727437917,-3.210175651120533,5.632949727437917,-3.210175651120533,0.0,0.0,0.0,0.0
1737149061.1071002,5844,1737149138,434662605,,"['front_left_wheel', 'front_right_wheel', 'rear_left_wheel', 'rear_right_wheel']",282.3985463355542,196.8382798304058,282.3985463355542,196.8382798304058,5.632949727437917,-3.210175651120533,5.632949727437917,-3.210175651120533,0.0,0.0,0.0,0.0
1737149061.2181504,5845,1737149138,545269650,,"['front_left_wheel', 'front_right_wheel', 'rear_left_wheel', 'rear_right_wheel']",282.99818291944274,196.4688067837674,282.99818291944274,196.4688067837674,5.693519079345851,-3.270745003028468,5.693519079345851,-3.270745003028468,0.0,0.0,0.0,0.0
1737149061.315871,5846,1737149138,643379287,,"['front_left_wheel', 'front_right_wheel', 'rear_left_wheel', 'rear_right_wheel']",283.47668079951546,196.21441550575412,283.47668079951546,196.21441550575412,5.754088431253785,-3.3313143549364024,5.754088431253785,-3.3313143549364024,0.0,0.0,0.0,0.0
1737149061.4147148,5847,1737149138,742456767,,"['front_left_wheel', 'front_right_wheel', 'rear_left_wheel', 'rear_right_wheel']",284.1368867353119,195.8388855239249,284.1368867353119,195.8388855239249,5.754088431253785,-3.3313143549364024,5.754088431253785,-3.3313143549364024,0.0,0.0,0.0,0.0
1737149061.5148156,5848,1737149138,842167005,,"['front_left_wheel', 'front_right_wheel', 'rear_left_wheel', 'rear_right_wheel']",284.6093276801938,195.5542095699576,284.6093276801938,195.5542095699576,5.754088431253785,-3.3313143549364024,5.754088431253785,-3.3313143549364024,0.0,0.0,0.0,0.0
1737149061.6135406,5849,1737149138,940999657,,"['front_left_wheel', 'front_right_wheel', 'rear_left_wheel', 'rear_right_wheel']",285.22713506965476,195.2029073288916,285.22713506965476,195.2029073288916,5.81465778316172,-3.3918837068443373,5.81465778316172,-3.3918837068443373,0.0,0.0,0.0,0.0
1737149061.7137928,5850,1737149139,40449741,,"['front_left_wheel', 'front_right_wheel', 'rear_left_wheel', 'rear_right_wheel']",285.75408843125376,194.81526347668083,285.75408843125376,194.81526347668083,5.875227135069655,-3.3918837068443373,5.875227135069655,-3.3918837068443373,0.0,0.0,0.0,0.0
1737149061.811376,5851,1737149139,139046861,,"['front_left_wheel', 'front_right_wheel', 'rear_left_wheel', 'rear_right_wheel']",286.3294972743792,194.54875832828588,286.3294972743792,194.54875832828588,5.875227135069655,-3.3918837068443373,5.875227135069655,-3.3918837068443373,0.0,0.0,0.0,0.0
1737149061.9104848,5852,1737149139,238201264,,"['front_left_wheel', 'front_right_wheel', 'rear_left_wheel', 'rear_right_wheel']",287.00181708055726,194.15505754088431,287.00181708055726,194.15505754088431,5.93579648697759,-3.4524530587522713,5.93579648697759,-3.4524530587522713,0.0,0.0,0.0,0.0
1737149062.0094147,5853,1737149139,337088642,,"['front_left_wheel', 'front_right_wheel', 'rear_left_wheel', 'rear_right_wheel']",287.45003028467596,193.88855239248943,287.45003028467596,193.88855239248943,5.93579648697759,-3.4524530587522713,5.93579648697759,-3.4524530587522713,0.0,0.0,0.0,0.0
1737149062.1085587,5854,1737149139,435512639,,"['front_left_wheel', 'front_right_wheel', 'rear_left_wheel', 'rear_right_wheel']",288.1647486371896,193.45245305875227,288.1647486371896,193.45245305875227,5.996365838885524,-3.5735917625681406,5.996365838885524,-3.5735917625681406,0.0,0.0,0.0,0.0
1737149062.207561,5855,1737149139,535114798,,"['front_left_wheel', 'front_right_wheel', 'rear_left_wheel', 'rear_right_wheel']",288.7946698970321,193.08298001211386,288.7946698970321,193.08298001211386,5.996365838885524,-3.5735917625681406,5.996365838885524,-3.5735917625681406,0.0,0.0,0.0,0.0
1737149062.3175426,5856,1737149139,645295498,,"['front_left_wheel', 'front_right_wheel', 'rear_left_wheel', 'rear_right_wheel']",289.3458509993943,192.74379164142942,289.3458509993943,192.74379164142942,6.0569351907934585,-3.634161114476075,6.0569351907934585,-3.634161114476075,0.0,0.0,0.0,0.0
1737149062.4164302,5857,1737149139,744188136,,"['front_left_wheel', 'front_right_wheel', 'rear_left_wheel', 'rear_right_wheel']",289.9212598425197,192.39248940036342,289.9212598425197,192.39248940036342,6.0569351907934585,-3.634161114476075,6.0569351907934585,-3.634161114476075,0.0,0.0,0.0,0.0
1737149062.5150113,5858,1737149139,842478492,,"['front_left_wheel', 'front_right_wheel', 'rear_left_wheel', 'rear_right_wheel']",290.59357964869776,191.98061780738948,290.59357964869776,191.98061780738948,6.0569351907934585,-3.634161114476075,6.0569351907934585,-3.634161114476075,0.0,0.0,0.0,0.0
1737149062.6146312,5859,1737149139,942312408,,"['front_left_wheel', 'front_right_wheel', 'rear_left_wheel', 'rear_right_wheel']",291.0478497880073,191.70199878861297,291.0478497880073,191.70199878861297,6.0569351907934585,-3.634161114476075,6.0569351907934585,-3.634161114476075,0.0,0.0,0.0,0.0
1737149062.713587,5860,1737149140,41216540,,"['front_left_wheel', 'front_right_wheel', 'rear_left_wheel', 'rear_right_wheel']",291.73228346456693,191.290127195639,291.73228346456693,191.290127195639,6.0569351907934585,-3.634161114476075,6.0569351907934585,-3.634161114476075,0.0,0.0,0.0,0.0
1737149062.8134747,5861,1737149140,140086875,,"['front_left_wheel', 'front_right_wheel', 'rear_left_wheel', 'rear_right_wheel']",292.18655360387646,190.87219866747427,292.18655360387646,190.87219866747427,6.0569351907934585,-3.6947304663840095,6.0569351907934585,-3.6947304663840095,0.0,0.0,0.0,0.0
1737149062.9117432,5862,1737149140,239132208,,"['front_left_wheel', 'front_right_wheel', 'rear_left_wheel', 'rear_right_wheel']",292.8649303452453,190.5693519079346,292.8649303452453,190.5693519079346,6.0569351907934585,-3.6947304663840095,6.0569351907934585,-3.6947304663840095,0.0,0.0,0.0,0.0
