Time,header.seq,header.stamp.secs,header.stamp.nsecs,header.frame_id,name,position_0,position_1,position_2,position_3,velocity_0,velocity_1,velocity_2,velocity_3,effort_0,effort_1,effort_2,effort_3
1737148990.280137,5129,1737149066,934757412,,"['front_left_wheel', 'front_right_wheel', 'rear_left_wheel', 'rear_right_wheel']",273.71290127195635,126.92307692307692,273.71290127195635,126.92307692307692,0.0,0.0,0.0,0.0,0.0,0.0,0.0,0.0
1737148990.2804513,5130,1737149067,44863658,,"['front_left_wheel', 'front_right_wheel', 'rear_left_wheel', 'rear_right_wheel']",273.71290127195635,126.92307692307692,273.71290127195635,126.92307692307692,0.0,0.0,0.0,0.0,0.0,0.0,0.0,0.0
1737148990.280593,5131,1737149067,144018880,,"['front_left_wheel', 'front_right_wheel', 'rear_left_wheel', 'rear_right_wheel']",273.71290127195635,126.92307692307692,273.71290127195635,126.92307692307692,0.0,0.0,0.0,0.0,0.0,0.0,0.0,0.0
1737148990.2810516,5132,1737149067,243007270,,"['front_left_wheel', 'front_right_wheel', 'rear_left_wheel', 'rear_right_wheel']",273.71290127195635,126.92307692307692,273.71290127195635,126.92307692307692,0.0,0.0,0.0,0.0,0.0,0.0,0.0,0.0
1737148990.2815456,5133,1737149067,342156805,,"['front_left_wheel', 'front_right_wheel', 'rear_left_wheel', 'rear_right_wheel']",273.71290127195635,126.92307692307692,273.71290127195635,126.92307692307692,0.0,0.0,0.0,0.0,0.0,0.0,0.0,0.0
1737148990.2818294,5134,1737149067,440766118,,"['front_left_wheel', 'front_right_wheel', 'rear_left_wheel', 'rear_right_wheel']",273.71290127195635,126.92307692307692,273.71290127195635,126.92307692307692,0.0,0.0,0.0,0.0,0.0,0.0,0.0,0.0
1737148990.2822647,5135,1737149067,539712434,,"['front_left_wheel', 'front_right_wheel', 'rear_left_wheel', 'rear_right_wheel']",273.71290127195635,126.92307692307692,273.71290127195635,126.92307692307692,0.0,0.0,0.0,0.0,0.0,0.0,0.0,0.0
1737148990.3134255,5136,1737149067,638321947,,"['front_left_wheel', 'front_right_wheel', 'rear_left_wheel', 'rear_right_wheel']",273.71290127195635,126.92307692307692,273.71290127195635,126.92307692307692,0.0,0.0,0.0,0.0,0.0,0.0,0.0,0.0
1737148990.4131236,5137,1737149067,737738665,,"['front_left_wheel', 'front_right_wheel', 'rear_left_wheel', 'rear_right_wheel']",273.71290127195635,126.92307692307692,273.71290127195635,126.92307692307692,0.0,0.0,0.0,0.0,0.0,0.0,0.0,0.0
1737148990.5117967,5138,1737149067,836443288,,"['front_left_wheel', 'front_right_wheel', 'rear_left_wheel', 'rear_right_wheel']",273.71290127195635,126.92307692307692,273.71290127195635,126.92307692307692,0.0,0.0,0.0,0.0,0.0,0.0,0.0,0.0
1737148990.611177,5139,1737149067,935948527,,"['front_left_wheel', 'front_right_wheel', 'rear_left_wheel', 'rear_right_wheel']",273.71290127195635,126.92307692307692,273.71290127195635,126.92307692307692,0.0,0.0,0.0,0.0,0.0,0.0,0.0,0.0
1737148990.7103953,5140,1737149068,35250147,,"['front_left_wheel', 'front_right_wheel', 'rear_left_wheel', 'rear_right_wheel']",273.71290127195635,126.92307692307692,273.71290127195635,126.92307692307692,0.0,0.0,0.0,0.0,0.0,0.0,0.0,0.0
1737148990.8203075,5141,1737149068,144722879,,"['front_left_wheel', 'front_right_wheel', 'rear_left_wheel', 'rear_right_wheel']",273.71290127195635,126.92307692307692,273.71290127195635,126.92307692307692,0.0,0.0,0.0,0.0,0.0,0.0,0.0,0.0
1737148990.9194472,5142,1737149068,244086595,,"['front_left_wheel', 'front_right_wheel', 'rear_left_wheel', 'rear_right_wheel']",273.71290127195635,126.92307692307692,273.71290127195635,126.92307692307692,0.0,0.0,0.0,0.0,0.0,0.0,0.0,0.0
1737148991.017543,5143,1737149068,342454614,,"['front_left_wheel', 'front_right_wheel', 'rear_left_wheel', 'rear_right_wheel']",273.71290127195635,126.92307692307692,273.71290127195635,126.92307692307692,0.0,0.0,0.0,0.0,0.0,0.0,0.0,0.0
1737148991.116582,5144,1737149068,441574202,,"['front_left_wheel', 'front_right_wheel', 'rear_left_wheel', 'rear_right_wheel']",273.71290127195635,126.92307692307692,273.71290127195635,126.92307692307692,0.0,0.0,0.0,0.0,0.0,0.0,0.0,0.0
1737148991.2161987,5145,1737149068,541230142,,"['front_left_wheel', 'front_right_wheel', 'rear_left_wheel', 'rear_right_wheel']",273.71290127195635,126.92307692307692,273.71290127195635,126.92307692307692,0.0,0.0,0.0,0.0,0.0,0.0,0.0,0.0
1737148991.3152714,5146,1737149068,639651300,,"['front_left_wheel', 'front_right_wheel', 'rear_left_wheel', 'rear_right_wheel']",273.71290127195635,126.92307692307692,273.71290127195635,126.92307692307692,0.0,0.0,0.0,0.0,0.0,0.0,0.0,0.0
1737148991.4139078,5147,1737149068,738769448,,"['front_left_wheel', 'front_right_wheel', 'rear_left_wheel', 'rear_right_wheel']",273.71290127195635,126.92307692307692,273.71290127195635,126.92307692307692,0.0,0.0,0.0,0.0,0.0,0.0,0.0,0.0
1737148991.513155,5148,1737149068,837813742,,"['front_left_wheel', 'front_right_wheel', 'rear_left_wheel', 'rear_right_wheel']",273.71290127195635,126.92307692307692,273.71290127195635,126.92307692307692,0.0,0.0,0.0,0.0,0.0,0.0,0.0,0.0
1737148991.6120577,5149,1737149068,937022341,,"['front_left_wheel', 'front_right_wheel', 'rear_left_wheel', 'rear_right_wheel']",273.71290127195635,126.92307692307692,273.71290127195635,126.92307692307692,0.0,0.0,0.0,0.0,0.0,0.0,0.0,0.0
1737148991.710742,5150,1737149069,35505920,,"['front_left_wheel', 'front_right_wheel', 'rear_left_wheel', 'rear_right_wheel']",273.71290127195635,126.92307692307692,273.71290127195635,126.92307692307692,0.0,0.0,0.0,0.0,0.0,0.0,0.0,0.0
1737148991.8102798,5151,1737149069,134703165,,"['front_left_wheel', 'front_right_wheel', 'rear_left_wheel', 'rear_right_wheel']",273.71290127195635,126.92307692307692,273.71290127195635,126.92307692307692,0.0,0.0,0.0,0.0,0.0,0.0,0.0,0.0
1737148991.9208593,5152,1737149069,245149309,,"['front_left_wheel', 'front_right_wheel', 'rear_left_wheel', 'rear_right_wheel']",273.71290127195635,126.92307692307692,273.71290127195635,126.92307692307692,0.0,0.0,0.0,0.0,0.0,0.0,0.0,0.0
1737148992.018436,5153,1737149069,343468987,,"['front_left_wheel', 'front_right_wheel', 'rear_left_wheel', 'rear_right_wheel']",273.71290127195635,126.92307692307692,273.71290127195635,126.92307692307692,0.0,0.0,0.0,0.0,0.0,0.0,0.0,0.0
1737148992.1187508,5154,1737149069,442315164,,"['front_left_wheel', 'front_right_wheel', 'rear_left_wheel', 'rear_right_wheel']",273.71290127195635,126.92307692307692,273.71290127195635,126.92307692307692,0.0,0.0,0.0,0.0,0.0,0.0,0.0,0.0
1737148992.2177432,5155,1737149069,542237351,,"['front_left_wheel', 'front_right_wheel', 'rear_left_wheel', 'rear_right_wheel']",273.71290127195635,126.92307692307692,273.71290127195635,126.92307692307692,0.0,0.0,0.0,0.0,0.0,0.0,0.0,0.0
1737148992.3167188,5156,1737149069,641258097,,"['front_left_wheel', 'front_right_wheel', 'rear_left_wheel', 'rear_right_wheel']",273.71290127195635,126.92307692307692,273.71290127195635,126.92307692307692,0.0,0.0,0.0,0.0,0.0,0.0,0.0,0.0
1737148992.4157166,5157,1737149069,740094555,,"['front_left_wheel', 'front_right_wheel', 'rear_left_wheel', 'rear_right_wheel']",273.71290127195635,126.92307692307692,273.71290127195635,126.92307692307692,0.0,0.0,0.0,0.0,0.0,0.0,0.0,0.0
1737148992.5141904,5158,1737149069,838859858,,"['front_left_wheel', 'front_right_wheel', 'rear_left_wheel', 'rear_right_wheel']",273.71290127195635,126.92307692307692,273.71290127195635,126.92307692307692,0.0,0.0,0.0,0.0,0.0,0.0,0.0,0.0
1737148992.6134028,5159,1737149069,938123092,,"['front_left_wheel', 'front_right_wheel', 'rear_left_wheel', 'rear_right_wheel']",273.71290127195635,126.92307692307692,273.71290127195635,126.92307692307692,0.0,0.0,0.0,0.0,0.0,0.0,0.0,0.0
1737148992.7122142,5160,1737149070,36741057,,"['front_left_wheel', 'front_right_wheel', 'rear_left_wheel', 'rear_right_wheel']",273.71290127195635,126.92307692307692,273.71290127195635,126.92307692307692,0.0,0.0,0.0,0.0,0.0,0.0,0.0,0.0
1737148992.810877,5161,1737149070,135435352,,"['front_left_wheel', 'front_right_wheel', 'rear_left_wheel', 'rear_right_wheel']",273.71290127195635,126.92307692307692,273.71290127195635,126.92307692307692,0.0,0.0,0.0,0.0,0.0,0.0,0.0,0.0
1737148992.9103205,5162,1737149070,235272443,,"['front_left_wheel', 'front_right_wheel', 'rear_left_wheel', 'rear_right_wheel']",273.71290127195635,126.92307692307692,273.71290127195635,126.92307692307692,0.0,0.0,0.0,0.0,0.0,0.0,0.0,0.0
1737148993.0242014,5163,1737149070,344380640,,"['front_left_wheel', 'front_right_wheel', 'rear_left_wheel', 'rear_right_wheel']",273.71290127195635,126.92307692307692,273.71290127195635,126.92307692307692,0.0,0.0,0.0,0.0,0.0,0.0,0.0,0.0
1737148993.11916,5164,1737149070,443904848,,"['front_left_wheel', 'front_right_wheel', 'rear_left_wheel', 'rear_right_wheel']",273.71290127195635,126.92307692307692,273.71290127195635,126.92307692307692,0.0,0.0,0.0,0.0,0.0,0.0,0.0,0.0
1737148993.2180815,5165,1737149070,542418131,,"['front_left_wheel', 'front_right_wheel', 'rear_left_wheel', 'rear_right_wheel']",273.71290127195635,126.92307692307692,273.71290127195635,126.92307692307692,0.0,0.0,0.0,0.0,0.0,0.0,0.0,0.0
1737148993.3165581,5166,1737149070,641408071,,"['front_left_wheel', 'front_right_wheel', 'rear_left_wheel', 'rear_right_wheel']",273.71290127195635,126.92307692307692,273.71290127195635,126.92307692307692,0.0,0.0,0.0,0.0,0.0,0.0,0.0,0.0
1737148993.4153342,5167,1737149070,740267106,,"['front_left_wheel', 'front_right_wheel', 'rear_left_wheel', 'rear_right_wheel']",273.71290127195635,126.92307692307692,273.71290127195635,126.92307692307692,0.0,0.0,0.0,0.0,0.0,0.0,0.0,0.0
1737148993.515661,5168,1737149070,839892392,,"['front_left_wheel', 'front_right_wheel', 'rear_left_wheel', 'rear_right_wheel']",273.71290127195635,126.92307692307692,273.71290127195635,126.92307692307692,0.0,0.0,0.0,0.0,0.0,0.0,0.0,0.0
1737148993.6208243,5169,1737149070,938791268,,"['front_left_wheel', 'front_right_wheel', 'rear_left_wheel', 'rear_right_wheel']",273.71290127195635,126.92307692307692,273.71290127195635,126.92307692307692,0.0,0.0,0.0,0.0,0.0,0.0,0.0,0.0
1737148993.7140024,5170,1737149071,37881306,,"['front_left_wheel', 'front_right_wheel', 'rear_left_wheel', 'rear_right_wheel']",273.71290127195635,126.92307692307692,273.71290127195635,126.92307692307692,0.0,0.0,0.0,0.0,0.0,0.0,0.0,0.0
1737148993.812564,5171,1737149071,136515727,,"['front_left_wheel', 'front_right_wheel', 'rear_left_wheel', 'rear_right_wheel']",273.71290127195635,126.92307692307692,273.71290127195635,126.92307692307692,0.0,0.0,0.0,0.0,0.0,0.0,0.0,0.0
1737148993.91094,5172,1737149071,235371227,,"['front_left_wheel', 'front_right_wheel', 'rear_left_wheel', 'rear_right_wheel']",273.71290127195635,126.92307692307692,273.71290127195635,126.92307692307692,0.0,0.0,0.0,0.0,0.0,0.0,0.0,0.0
1737148994.0095108,5173,1737149071,334464205,,"['front_left_wheel', 'front_right_wheel', 'rear_left_wheel', 'rear_right_wheel']",273.71290127195635,126.92307692307692,273.71290127195635,126.92307692307692,0.0,0.0,0.0,0.0,0.0,0.0,0.0,0.0
1737148994.1194494,5174,1737149071,444254919,,"['front_left_wheel', 'front_right_wheel', 'rear_left_wheel', 'rear_right_wheel']",273.71290127195635,126.92307692307692,273.71290127195635,126.92307692307692,0.0,0.0,0.0,0.0,0.0,0.0,0.0,0.0
1737148994.2191818,5175,1737149071,543790068,,"['front_left_wheel', 'front_right_wheel', 'rear_left_wheel', 'rear_right_wheel']",273.71290127195635,126.92307692307692,273.71290127195635,126.92307692307692,0.0,0.0,0.0,0.0,0.0,0.0,0.0,0.0
1737148994.3186312,5176,1737149071,643046345,,"['front_left_wheel', 'front_right_wheel', 'rear_left_wheel', 'rear_right_wheel']",273.71290127195635,126.92307692307692,273.71290127195635,126.92307692307692,0.0,0.0,0.0,0.0,0.0,0.0,0.0,0.0
1737148994.4167564,5177,1737149071,741307946,,"['front_left_wheel', 'front_right_wheel', 'rear_left_wheel', 'rear_right_wheel']",273.71290127195635,126.92307692307692,273.71290127195635,126.92307692307692,0.0,0.0,0.0,0.0,0.0,0.0,0.0,0.0
1737148994.5165298,5178,1737149071,840926411,,"['front_left_wheel', 'front_right_wheel', 'rear_left_wheel', 'rear_right_wheel']",273.71290127195635,126.92307692307692,273.71290127195635,126.92307692307692,0.0,0.0,0.0,0.0,0.0,0.0,0.0,0.0
1737148994.616049,5179,1737149071,939716773,,"['front_left_wheel', 'front_right_wheel', 'rear_left_wheel', 'rear_right_wheel']",273.71290127195635,126.92307692307692,273.71290127195635,126.92307692307692,0.0,0.0,0.0,0.0,0.0,0.0,0.0,0.0
1737148994.7153692,5180,1737149072,38829484,,"['front_left_wheel', 'front_right_wheel', 'rear_left_wheel', 'rear_right_wheel']",273.71290127195635,126.92307692307692,273.71290127195635,126.92307692307692,0.0,0.0,0.0,0.0,0.0,0.0,0.0,0.0
1737148994.8132818,5181,1737149072,137927125,,"['front_left_wheel', 'front_right_wheel', 'rear_left_wheel', 'rear_right_wheel']",273.71290127195635,126.92307692307692,273.71290127195635,126.92307692307692,0.0,0.0,0.0,0.0,0.0,0.0,0.0,0.0
1737148994.9121673,5182,1737149072,236710470,,"['front_left_wheel', 'front_right_wheel', 'rear_left_wheel', 'rear_right_wheel']",273.7189582071472,126.93519079345852,273.7189582071472,126.93519079345852,1.0902483343428224,1.2719563900666262,1.0902483343428224,1.2719563900666262,0.0,0.0,0.0,0.0
1737148995.0107546,5183,1737149072,335560691,,"['front_left_wheel', 'front_right_wheel', 'rear_left_wheel', 'rear_right_wheel']",273.83403997577227,127.06844336765596,273.83403997577227,127.06844336765596,1.0902483343428224,1.2719563900666262,1.0902483343428224,1.2719563900666262,0.0,0.0,0.0,0.0
1737148995.1097796,5184,1737149072,434716051,,"['front_left_wheel', 'front_right_wheel', 'rear_left_wheel', 'rear_right_wheel']",273.95517867958813,127.21380981223501,273.95517867958813,127.21380981223501,1.029678982434888,1.3325257419745609,1.029678982434888,1.3325257419745609,0.0,0.0,0.0,0.0
1737148995.220298,5185,1737149072,544878199,,"['front_left_wheel', 'front_right_wheel', 'rear_left_wheel', 'rear_right_wheel']",274.0702604482132,127.36523319200484,274.0702604482132,127.36523319200484,1.029678982434888,1.3325257419745609,1.029678982434888,1.3325257419745609,0.0,0.0,0.0,0.0
1737148995.3187292,5186,1737149072,643862533,,"['front_left_wheel', 'front_right_wheel', 'rear_left_wheel', 'rear_right_wheel']",274.1490006056935,127.46820109024834,274.1490006056935,127.46820109024834,0.9691096305269534,1.3930950938824955,0.9691096305269534,1.3930950938824955,0.0,0.0,0.0,0.0
1737148995.4181132,5187,1737149072,743247140,,"['front_left_wheel', 'front_right_wheel', 'rear_left_wheel', 'rear_right_wheel']",274.25802543912783,127.62568140520898,274.25802543912783,127.62568140520898,0.9691096305269534,1.3930950938824955,0.9691096305269534,1.3930950938824955,0.0,0.0,0.0,0.0
1737148995.5163386,5188,1737149072,841481474,,"['front_left_wheel', 'front_right_wheel', 'rear_left_wheel', 'rear_right_wheel']",274.33070866141736,127.73470623864324,274.33070866141736,127.73470623864324,0.9085402786190188,1.45366444579043,0.9085402786190188,1.45366444579043,0.0,0.0,0.0,0.0
1737148995.6152835,5189,1737149072,940229324,,"['front_left_wheel', 'front_right_wheel', 'rear_left_wheel', 'rear_right_wheel']",274.4397334948516,127.91035735917625,274.4397334948516,127.91035735917625,0.9085402786190188,1.45366444579043,0.9085402786190188,1.45366444579043,0.0,0.0,0.0,0.0
1737148995.7147005,5190,1737149073,39737477,,"['front_left_wheel', 'front_right_wheel', 'rear_left_wheel', 'rear_right_wheel']",274.5366444579043,128.06783767413688,274.5366444579043,128.06783767413688,0.8479709267110843,1.5142337976983646,0.8479709267110843,1.5142337976983646,0.0,0.0,0.0,0.0
1737148995.8134325,5191,1737149073,138211992,,"['front_left_wheel', 'front_right_wheel', 'rear_left_wheel', 'rear_right_wheel']",274.6093276801938,128.20109024833434,274.6093276801938,128.20109024833434,0.8479709267110843,1.5142337976983646,0.8479709267110843,1.5142337976983646,0.0,0.0,0.0,0.0
1737148995.912881,5192,1737149073,237952988,,"['front_left_wheel', 'front_right_wheel', 'rear_left_wheel', 'rear_right_wheel']",274.70018170805577,128.358570563295,274.70018170805577,128.358570563295,0.7874015748031497,1.5748031496062993,0.7874015748031497,1.5748031496062993,0.0,0.0,0.0,0.0
1737148996.011571,5193,1737149073,336699248,,"['front_left_wheel', 'front_right_wheel', 'rear_left_wheel', 'rear_right_wheel']",274.77286493034524,128.5099939430648,274.77286493034524,128.5099939430648,0.7874015748031497,1.5748031496062993,0.7874015748031497,1.5748031496062993,0.0,0.0,0.0,0.0
1737148996.1107373,5194,1737149073,435809762,,"['front_left_wheel', 'front_right_wheel', 'rear_left_wheel', 'rear_right_wheel']",274.84554815263476,128.66141732283467,274.84554815263476,128.66141732283467,0.726832222895215,1.635372501514234,0.726832222895215,1.635372501514234,0.0,0.0,0.0,0.0
1737148996.2097201,5195,1737149073,534828158,,"['front_left_wheel', 'front_right_wheel', 'rear_left_wheel', 'rear_right_wheel']",274.9242883101151,128.84918231374925,274.9242883101151,128.84918231374925,0.6662628709872804,1.6959418534221686,0.6662628709872804,1.6959418534221686,0.0,0.0,0.0,0.0
1737148996.3199718,5196,1737149073,644764589,,"['front_left_wheel', 'front_right_wheel', 'rear_left_wheel', 'rear_right_wheel']",274.984857662023,129.04300423985464,274.984857662023,129.04300423985464,0.6662628709872804,1.6959418534221686,0.6662628709872804,1.6959418534221686,0.0,0.0,0.0,0.0
1737148996.4182992,5197,1737149073,743497450,,"['front_left_wheel', 'front_right_wheel', 'rear_left_wheel', 'rear_right_wheel']",275.0575408843125,129.20048455481526,275.0575408843125,129.20048455481526,0.6056935190793459,1.6959418534221686,0.6056935190793459,1.6959418534221686,0.0,0.0,0.0,0.0
1737148996.518094,5198,1737149073,842977156,,"['front_left_wheel', 'front_right_wheel', 'rear_left_wheel', 'rear_right_wheel']",275.11811023622045,129.37007874015748,275.11811023622045,129.37007874015748,0.6056935190793459,1.6959418534221686,0.6056935190793459,1.6959418534221686,0.0,0.0,0.0,0.0
1737148996.6163323,5199,1737149073,941298817,,"['front_left_wheel', 'front_right_wheel', 'rear_left_wheel', 'rear_right_wheel']",275.1726226529376,129.55178679588127,275.1726226529376,129.55178679588127,0.5451241671714112,1.8170805572380375,0.5451241671714112,1.8170805572380375,0.0,0.0,0.0,0.0
1737148996.7162747,5200,1737149074,40959261,,"['front_left_wheel', 'front_right_wheel', 'rear_left_wheel', 'rear_right_wheel']",275.22713506965476,129.71532404603272,275.22713506965476,129.71532404603272,0.5451241671714112,1.8170805572380375,0.5451241671714112,1.8170805572380375,0.0,0.0,0.0,0.0
1737148996.8155544,5201,1737149074,140168843,,"['front_left_wheel', 'front_right_wheel', 'rear_left_wheel', 'rear_right_wheel']",275.28164748637187,129.92731677771047,275.28164748637187,129.92731677771047,0.4845548152634767,1.8776499091459722,0.4845548152634767,1.8776499091459722,0.0,0.0,0.0,0.0
1737148996.9140306,5202,1737149074,238768354,,"['front_left_wheel', 'front_right_wheel', 'rear_left_wheel', 'rear_right_wheel']",275.31798909751666,130.06662628709873,275.31798909751666,130.06662628709873,0.4845548152634767,1.8776499091459722,0.4845548152634767,1.8776499091459722,0.0,0.0,0.0,0.0
1737148997.0132017,5203,1737149074,337985641,,"['front_left_wheel', 'front_right_wheel', 'rear_left_wheel', 'rear_right_wheel']",275.3725015142338,130.29073288915808,275.3725015142338,130.29073288915808,0.42398546335554216,1.9382192610539069,0.42398546335554216,1.9382192610539069,0.0,0.0,0.0,0.0
1737148997.11108,5204,1737149074,436312936,,"['front_left_wheel', 'front_right_wheel', 'rear_left_wheel', 'rear_right_wheel']",275.4149000605693,130.4724409448819,275.4149000605693,130.4724409448819,0.42398546335554216,1.9382192610539069,0.42398546335554216,1.9382192610539069,0.0,0.0,0.0,0.0
1737148997.2106645,5205,1737149074,535649889,,"['front_left_wheel', 'front_right_wheel', 'rear_left_wheel', 'rear_right_wheel']",275.4512416717141,130.6541490006057,275.4512416717141,130.6541490006057,0.3634161114476075,1.9987886129618415,0.3634161114476075,1.9987886129618415,0.0,0.0,0.0,0.0
1737148997.3106575,5206,1737149074,635270804,,"['front_left_wheel', 'front_right_wheel', 'rear_left_wheel', 'rear_right_wheel']",275.4936402180497,130.88431253785586,275.4936402180497,130.88431253785586,0.3634161114476075,1.9987886129618415,0.3634161114476075,1.9987886129618415,0.0,0.0,0.0,0.0
1737148997.4200344,5207,1737149074,744831649,,"['front_left_wheel', 'front_right_wheel', 'rear_left_wheel', 'rear_right_wheel']",275.5178679588129,131.0357359176257,275.5178679588129,131.0357359176257,0.30284675953967294,2.059357964869776,0.30284675953967294,2.059357964869776,0.0,0.0,0.0,0.0
1737148997.518388,5208,1737149074,843230826,,"['front_left_wheel', 'front_right_wheel', 'rear_left_wheel', 'rear_right_wheel']",275.5542095699576,131.2719563900666,275.5542095699576,131.2719563900666,0.30284675953967294,2.059357964869776,0.30284675953967294,2.059357964869776,0.0,0.0,0.0,0.0
1737148997.6172307,5209,1737149074,942399120,,"['front_left_wheel', 'front_right_wheel', 'rear_left_wheel', 'rear_right_wheel']",275.58449424591157,131.50817686250758,275.58449424591157,131.50817686250758,0.24227740763173836,2.1199273167777104,0.24227740763173836,2.1199273167777104,0.0,0.0,0.0,0.0
1737148997.7170858,5210,1737149075,41266851,,"['front_left_wheel', 'front_right_wheel', 'rear_left_wheel', 'rear_right_wheel']",275.602665051484,131.68988491823137,275.602665051484,131.68988491823137,0.18170805572380375,2.180496668685645,0.18170805572380375,2.180496668685645,0.0,0.0,0.0,0.0
1737148997.817042,5211,1737149075,141130245,,"['front_left_wheel', 'front_right_wheel', 'rear_left_wheel', 'rear_right_wheel']",275.62083585705636,131.92004845548155,275.62083585705636,131.92004845548155,0.18170805572380375,2.180496668685645,0.18170805572380375,2.180496668685645,0.0,0.0,0.0,0.0
1737148997.9155314,5212,1737149075,239870811,,"['front_left_wheel', 'front_right_wheel', 'rear_left_wheel', 'rear_right_wheel']",275.63900666262873,132.1259842519685,275.63900666262873,132.1259842519685,0.12113870381586918,2.2410660205935797,0.12113870381586918,2.2410660205935797,0.0,0.0,0.0,0.0
1737148998.0137117,5213,1737149075,338711170,,"['front_left_wheel', 'front_right_wheel', 'rear_left_wheel', 'rear_right_wheel']",275.65112053301027,132.34403391883708,275.65112053301027,132.34403391883708,0.12113870381586918,2.2410660205935797,0.12113870381586918,2.2410660205935797,0.0,0.0,0.0,0.0
1737148998.1133711,5214,1737149075,438348502,,"['front_left_wheel', 'front_right_wheel', 'rear_left_wheel', 'rear_right_wheel']",275.6571774682011,132.6044821320412,275.6571774682011,132.6044821320412,0.06056935190793459,2.301635372501514,0.06056935190793459,2.301635372501514,0.0,0.0,0.0,0.0
1737148998.2116134,5215,1737149075,536821896,,"['front_left_wheel', 'front_right_wheel', 'rear_left_wheel', 'rear_right_wheel']",275.66323440339187,132.79224712295579,275.66323440339187,132.79224712295579,0.06056935190793459,2.301635372501514,0.06056935190793459,2.301635372501514,0.0,0.0,0.0,0.0
1737148998.3105726,5216,1737149075,635415107,,"['front_left_wheel', 'front_right_wheel', 'rear_left_wheel', 'rear_right_wheel']",275.6692913385827,133.04058146577833,275.6692913385827,133.04058146577833,0.0,2.362204724409449,0.0,2.362204724409449,0.0,0.0,0.0,0.0
1737148998.4101465,5217,1737149075,734927076,,"['front_left_wheel', 'front_right_wheel', 'rear_left_wheel', 'rear_right_wheel']",275.6814052089643,133.30708661417324,275.6814052089643,133.30708661417324,0.0,2.362204724409449,0.0,2.362204724409449,0.0,0.0,0.0,0.0
1737148998.51951,5218,1737149075,844396510,,"['front_left_wheel', 'front_right_wheel', 'rear_left_wheel', 'rear_right_wheel']",275.70563294972743,133.5372501514234,275.70563294972743,133.5372501514234,0.0,2.4227740763173835,0.0,2.4227740763173835,0.0,0.0,0.0,0.0
1737148998.6184437,5219,1737149075,943257830,,"['front_left_wheel', 'front_right_wheel', 'rear_left_wheel', 'rear_right_wheel']",275.717746820109,133.76741368867354,275.717746820109,133.76741368867354,0.0,2.4227740763173835,0.0,2.4227740763173835,0.0,0.0,0.0,0.0
1737148998.7173707,5220,1737149076,42223934,,"['front_left_wheel', 'front_right_wheel', 'rear_left_wheel', 'rear_right_wheel']",275.7359176256814,134.04603270745002,275.7359176256814,134.04603270745002,-0.06056935190793459,2.483343428225318,-0.06056935190793459,2.483343428225318,0.0,0.0,0.0,0.0
1737148998.8169758,5221,1737149076,141942994,,"['front_left_wheel', 'front_right_wheel', 'rear_left_wheel', 'rear_right_wheel']",275.7298606904906,134.2337976983646,275.7298606904906,134.2337976983646,-0.06056935190793459,2.483343428225318,-0.06056935190793459,2.483343428225318,0.0,0.0,0.0,0.0
1737148998.9164426,5222,1737149076,241015745,,"['front_left_wheel', 'front_right_wheel', 'rear_left_wheel', 'rear_right_wheel']",275.7238037552998,134.51847365233192,275.7238037552998,134.51847365233192,-0.12113870381586918,2.5439127801332524,-0.12113870381586918,2.5439127801332524,0.0,0.0,0.0,0.0
1737148999.0159867,5223,1737149076,339951285,,"['front_left_wheel', 'front_right_wheel', 'rear_left_wheel', 'rear_right_wheel']",275.71168988491826,134.7244094488189,275.71168988491826,134.7244094488189,-0.18170805572380375,2.6044821320411873,-0.18170805572380375,2.6044821320411873,0.0,0.0,0.0,0.0
1737148999.113845,5224,1737149076,439031489,,"['front_left_wheel', 'front_right_wheel', 'rear_left_wheel', 'rear_right_wheel']",275.6935190793459,135.00908540278618,275.6935190793459,135.00908540278618,-0.18170805572380375,2.6044821320411873,-0.18170805572380375,2.6044821320411873,0.0,0.0,0.0,0.0
1737148999.2128425,5225,1737149076,537807947,,"['front_left_wheel', 'front_right_wheel', 'rear_left_wheel', 'rear_right_wheel']",275.6692913385827,135.31193216232586,275.6692913385827,135.31193216232586,-0.24227740763173836,2.6650514839491217,-0.24227740763173836,2.6650514839491217,0.0,0.0,0.0,0.0
1737148999.3117507,5226,1737149076,636536301,,"['front_left_wheel', 'front_right_wheel', 'rear_left_wheel', 'rear_right_wheel']",275.65112053301027,135.51181102362204,275.65112053301027,135.51181102362204,-0.24227740763173836,2.6650514839491217,-0.24227740763173836,2.6650514839491217,0.0,0.0,0.0,0.0
1737148999.4107187,5227,1737149076,735810455,,"['front_left_wheel', 'front_right_wheel', 'rear_left_wheel', 'rear_right_wheel']",275.61477892186554,135.82071471835252,275.61477892186554,135.82071471835252,-0.30284675953967294,2.7256208358570566,-0.30284675953967294,2.7256208358570566,0.0,0.0,0.0,0.0
1737148999.5097525,5228,1737149076,834679659,,"['front_left_wheel', 'front_right_wheel', 'rear_left_wheel', 'rear_right_wheel']",275.59660811629317,136.03270745003027,275.59660811629317,136.03270745003027,-0.30284675953967294,2.7256208358570566,-0.30284675953967294,2.7256208358570566,0.0,0.0,0.0,0.0
1737148999.619123,5229,1737149076,944450084,,"['front_left_wheel', 'front_right_wheel', 'rear_left_wheel', 'rear_right_wheel']",275.5542095699576,136.35372501514235,275.5542095699576,136.35372501514235,-0.3634161114476075,2.786190187764991,-0.3634161114476075,2.786190187764991,0.0,0.0,0.0,0.0
1737148999.718553,5230,1737149077,44135785,,"['front_left_wheel', 'front_right_wheel', 'rear_left_wheel', 'rear_right_wheel']",275.51181102362204,136.686856450636,275.51181102362204,136.686856450636,-0.3634161114476075,2.786190187764991,-0.3634161114476075,2.786190187764991,0.0,0.0,0.0,0.0
1737148999.8175933,5231,1737149077,142827571,,"['front_left_wheel', 'front_right_wheel', 'rear_left_wheel', 'rear_right_wheel']",275.4694124772865,136.97758933979406,275.4694124772865,136.97758933979406,-0.42398546335554216,2.8467595396729255,-0.42398546335554216,2.8467595396729255,0.0,0.0,0.0,0.0
1737148999.9168518,5232,1737149077,241751717,,"['front_left_wheel', 'front_right_wheel', 'rear_left_wheel', 'rear_right_wheel']",275.4330708661417,137.24409448818898,275.4330708661417,137.24409448818898,-0.42398546335554216,2.8467595396729255,-0.42398546335554216,2.8467595396729255,0.0,0.0,0.0,0.0
1737149000.0153127,5233,1737149077,340219211,,"['front_left_wheel', 'front_right_wheel', 'rear_left_wheel', 'rear_right_wheel']",275.3906723198062,137.5166565717747,275.3906723198062,137.5166565717747,-0.4845548152634767,2.90732889158086,-0.4845548152634767,2.90732889158086,0.0,0.0,0.0,0.0
1737149000.1163743,5234,1737149077,439937946,,"['front_left_wheel', 'front_right_wheel', 'rear_left_wheel', 'rear_right_wheel']",275.3482737734706,137.7528770442156,275.3482737734706,137.7528770442156,-0.4845548152634767,2.90732889158086,-0.4845548152634767,2.90732889158086,0.0,0.0,0.0,0.0
1737149000.2153943,5235,1737149077,539074103,,"['front_left_wheel', 'front_right_wheel', 'rear_left_wheel', 'rear_right_wheel']",275.29376135675346,138.09812235009085,275.29376135675346,138.09812235009085,-0.5451241671714112,2.967898243488795,-0.5451241671714112,2.967898243488795,0.0,0.0,0.0,0.0
1737149000.312547,5236,1737149077,637610681,,"['front_left_wheel', 'front_right_wheel', 'rear_left_wheel', 'rear_right_wheel']",275.2331920048456,138.41308298001212,275.2331920048456,138.41308298001212,-0.5451241671714112,2.967898243488795,-0.5451241671714112,2.967898243488795,0.0,0.0,0.0,0.0
1737149000.411336,5237,1737149077,736561323,,"['front_left_wheel', 'front_right_wheel', 'rear_left_wheel', 'rear_right_wheel']",275.17867958812843,138.6917019987886,275.17867958812843,138.6917019987886,-0.6056935190793459,3.0284675953967293,-0.6056935190793459,3.0284675953967293,0.0,0.0,0.0,0.0
1737149000.5103593,5238,1737149077,835607585,,"['front_left_wheel', 'front_right_wheel', 'rear_left_wheel', 'rear_right_wheel']",275.11811023622045,138.98849182313748,275.11811023622045,138.98849182313748,-0.6662628709872804,3.089036947304664,-0.6662628709872804,3.089036947304664,0.0,0.0,0.0,0.0
1737149000.608762,5239,1737149077,934229371,,"['front_left_wheel', 'front_right_wheel', 'rear_left_wheel', 'rear_right_wheel']",275.05148394912175,139.29739551786795,275.05148394912175,139.29739551786795,-0.6662628709872804,3.089036947304664,-0.6662628709872804,3.089036947304664,0.0,0.0,0.0,0.0
1737149000.7195685,5240,1737149078,44280693,,"['front_left_wheel', 'front_right_wheel', 'rear_left_wheel', 'rear_right_wheel']",274.9909145972138,139.57601453664446,274.9909145972138,139.57601453664446,-0.726832222895215,3.1496062992125986,-0.726832222895215,3.1496062992125986,0.0,0.0,0.0,0.0
1737149000.818349,5241,1737149078,143471503,,"['front_left_wheel', 'front_right_wheel', 'rear_left_wheel', 'rear_right_wheel']",274.9061175045427,139.93337371290127,274.9061175045427,139.93337371290127,-0.726832222895215,3.1496062992125986,-0.726832222895215,3.1496062992125986,0.0,0.0,0.0,0.0
1737149000.9176724,5242,1737149078,242873233,,"['front_left_wheel', 'front_right_wheel', 'rear_left_wheel', 'rear_right_wheel']",274.8516050878256,140.29678982434888,274.8516050878256,140.29678982434888,-0.7874015748031497,3.210175651120533,-0.7874015748031497,3.210175651120533,0.0,0.0,0.0,0.0
1737149001.0168343,5243,1737149078,342255041,,"['front_left_wheel', 'front_right_wheel', 'rear_left_wheel', 'rear_right_wheel']",274.76075105996364,140.557238037553,274.76075105996364,140.557238037553,-0.7874015748031497,3.210175651120533,-0.7874015748031497,3.210175651120533,0.0,0.0,0.0,0.0
1737149001.1159446,5244,1737149078,441071479,,"['front_left_wheel', 'front_right_wheel', 'rear_left_wheel', 'rear_right_wheel']",274.66989703210174,140.90854027861903,274.66989703210174,140.90854027861903,-0.8479709267110843,3.270745003028468,-0.8479709267110843,3.270745003028468,0.0,0.0,0.0,0.0
1737149001.2155747,5245,1737149078,540098161,,"['front_left_wheel', 'front_right_wheel', 'rear_left_wheel', 'rear_right_wheel']",274.60327074500304,141.15687462144155,274.60327074500304,141.15687462144155,-0.8479709267110843,3.270745003028468,-0.8479709267110843,3.270745003028468,0.0,0.0,0.0,0.0
1737149001.3131075,5246,1737149078,638276009,,"['front_left_wheel', 'front_right_wheel', 'rear_left_wheel', 'rear_right_wheel']",274.5063597819503,141.53240460327075,274.5063597819503,141.53240460327075,-0.9085402786190188,3.3313143549364024,-0.9085402786190188,3.3313143549364024,0.0,0.0,0.0,0.0
1737149001.4128125,5247,1737149078,737866724,,"['front_left_wheel', 'front_right_wheel', 'rear_left_wheel', 'rear_right_wheel']",274.4033918837069,141.91399152029072,274.4033918837069,141.91399152029072,-0.9085402786190188,3.3313143549364024,-0.9085402786190188,3.3313143549364024,0.0,0.0,0.0,0.0
1737149001.5129879,5248,1737149078,837238890,,"['front_left_wheel', 'front_right_wheel', 'rear_left_wheel', 'rear_right_wheel']",274.33070866141736,142.17443973349484,274.33070866141736,142.17443973349484,-0.9691096305269534,3.3918837068443373,-0.9691096305269534,3.3918837068443373,0.0,0.0,0.0,0.0
1737149001.6101933,5249,1737149078,935553584,,"['front_left_wheel', 'front_right_wheel', 'rear_left_wheel', 'rear_right_wheel']",274.22168382798304,142.54996971532404,274.22168382798304,142.54996971532404,-0.9691096305269534,3.3918837068443373,-0.9691096305269534,3.3918837068443373,0.0,0.0,0.0,0.0
1737149001.7094188,5250,1737149079,34693120,,"['front_left_wheel', 'front_right_wheel', 'rear_left_wheel', 'rear_right_wheel']",274.1368867353119,142.84675953967292,274.1368867353119,142.84675953967292,-1.029678982434888,3.3918837068443373,-1.029678982434888,3.3918837068443373,0.0,0.0,0.0,0.0
1737149001.8192751,5251,1737149079,144235906,,"['front_left_wheel', 'front_right_wheel', 'rear_left_wheel', 'rear_right_wheel']",274.01574803149606,143.25257419745608,274.01574803149606,143.25257419745608,-1.029678982434888,3.3918837068443373,-1.029678982434888,3.3918837068443373,0.0,0.0,0.0,0.0
1737149001.917917,5252,1737149079,243244462,,"['front_left_wheel', 'front_right_wheel', 'rear_left_wheel', 'rear_right_wheel']",273.91278013325257,143.5978195033313,273.91278013325257,143.5978195033313,-1.0902483343428224,3.4524530587522713,-1.0902483343428224,3.4524530587522713,0.0,0.0,0.0,0.0
1737149002.0181897,5253,1737149079,343273698,,"['front_left_wheel', 'front_right_wheel', 'rear_left_wheel', 'rear_right_wheel']",273.8037552998183,143.94912174439733,273.8037552998183,143.94912174439733,-1.150817686250757,3.5735917625681406,-1.150817686250757,3.5735917625681406,0.0,0.0,0.0,0.0
1737149002.1171784,5254,1737149079,441444767,,"['front_left_wheel', 'front_right_wheel', 'rear_left_wheel', 'rear_right_wheel']",273.694730466384,144.29436705027257,273.694730466384,144.29436705027257,-1.150817686250757,3.5735917625681406,-1.150817686250757,3.5735917625681406,0.0,0.0,0.0,0.0
1737149002.2161067,5255,1737149079,541137711,,"['front_left_wheel', 'front_right_wheel', 'rear_left_wheel', 'rear_right_wheel']",273.56147789218653,144.68201090248334,273.56147789218653,144.68201090248334,-1.2113870381586918,3.634161114476075,-1.2113870381586918,3.634161114476075,0.0,0.0,0.0,0.0
1737149002.3154204,5256,1737149079,639987245,,"['front_left_wheel', 'front_right_wheel', 'rear_left_wheel', 'rear_right_wheel']",273.4585099939431,145.00908540278618,273.4585099939431,145.00908540278618,-1.2113870381586918,3.634161114476075,-1.2113870381586918,3.634161114476075,0.0,0.0,0.0,0.0
1737149002.4192262,5257,1737149079,738372319,,"['front_left_wheel', 'front_right_wheel', 'rear_left_wheel', 'rear_right_wheel']",273.3313143549364,145.3785584494246,273.3313143549364,145.3785584494246,-1.2719563900666262,3.6947304663840095,-1.2719563900666262,3.6947304663840095,0.0,0.0,0.0,0.0
1737149002.5120864,5258,1737149079,837506005,,"['front_left_wheel', 'front_right_wheel', 'rear_left_wheel', 'rear_right_wheel']",273.21017565112055,145.79648697758935,273.21017565112055,145.79648697758935,-1.2719563900666262,3.6947304663840095,-1.2719563900666262,3.6947304663840095,0.0,0.0,0.0,0.0
1737149002.6117923,5259,1737149079,936809956,,"['front_left_wheel', 'front_right_wheel', 'rear_left_wheel', 'rear_right_wheel']",273.0890369473047,146.08116293155663,273.0890369473047,146.08116293155663,-1.3325257419745609,3.7552998182919444,-1.3325257419745609,3.7552998182919444,0.0,0.0,0.0,0.0
1737149002.7097216,5260,1737149080,35316415,,"['front_left_wheel', 'front_right_wheel', 'rear_left_wheel', 'rear_right_wheel']",272.9376135675348,146.50514839491217,272.9376135675348,146.50514839491217,-1.3325257419745609,3.7552998182919444,-1.3325257419745609,3.7552998182919444,0.0,0.0,0.0,0.0
1737149002.8091347,5261,1737149080,134542787,,"['front_left_wheel', 'front_right_wheel', 'rear_left_wheel', 'rear_right_wheel']",272.8346456692914,146.78982434887948,272.8346456692914,146.78982434887948,-1.3930950938824955,3.815869170199879,-1.3930950938824955,3.815869170199879,0.0,0.0,0.0,0.0
1737149002.9198344,5262,1737149080,244864775,,"['front_left_wheel', 'front_right_wheel', 'rear_left_wheel', 'rear_right_wheel']",272.6711084191399,147.22592368261658,272.6711084191399,147.22592368261658,-1.3930950938824955,3.815869170199879,-1.3930950938824955,3.815869170199879,0.0,0.0,0.0,0.0
1737149003.0183232,5263,1737149080,343630962,,"['front_left_wheel', 'front_right_wheel', 'rear_left_wheel', 'rear_right_wheel']",272.5075711689885,147.6801938219261,272.5075711689885,147.6801938219261,-1.45366444579043,3.8764385221078137,-1.45366444579043,3.8764385221078137,0.0,0.0,0.0,0.0
1737149003.118242,5264,1737149080,443201567,,"['front_left_wheel', 'front_right_wheel', 'rear_left_wheel', 'rear_right_wheel']",272.374318594791,148.04966686856451,272.374318594791,148.04966686856451,-1.45366444579043,3.8764385221078137,-1.45366444579043,3.8764385221078137,0.0,0.0,0.0,0.0
1737149003.2162206,5265,1737149080,541402173,,"['front_left_wheel', 'front_right_wheel', 'rear_left_wheel', 'rear_right_wheel']",272.2350090854028,148.40096910963052,272.2350090854028,148.40096910963052,-1.5142337976983646,3.937007874015748,-1.5142337976983646,3.937007874015748,0.0,0.0,0.0,0.0
1737149003.3150907,5266,1737149080,640523330,,"['front_left_wheel', 'front_right_wheel', 'rear_left_wheel', 'rear_right_wheel']",272.0593579648698,148.85523924894005,272.0593579648698,148.85523924894005,-1.5748031496062993,3.997577225923683,-1.5748031496062993,3.997577225923683,0.0,0.0,0.0,0.0
1737149003.4154248,5267,1737149080,740020104,,"['front_left_wheel', 'front_right_wheel', 'rear_left_wheel', 'rear_right_wheel']",271.9382192610539,149.15808600847973,271.9382192610539,149.15808600847973,-1.5748031496062993,3.997577225923683,-1.5748031496062993,3.997577225923683,0.0,0.0,0.0,0.0
1737149003.5133038,5268,1737149080,838781557,,"['front_left_wheel', 'front_right_wheel', 'rear_left_wheel', 'rear_right_wheel']",271.75651120533007,149.6244700181708,271.75651120533007,149.6244700181708,-1.635372501514234,4.058146577831618,-1.635372501514234,4.058146577831618,0.0,0.0,0.0,0.0
1737149003.6128917,5269,1737149080,938025784,,"['front_left_wheel', 'front_right_wheel', 'rear_left_wheel', 'rear_right_wheel']",271.62325863113267,149.95760145366444,271.62325863113267,149.95760145366444,-1.635372501514234,4.058146577831618,-1.635372501514234,4.058146577831618,0.0,0.0,0.0,0.0
1737149003.711221,5270,1737149081,36536263,,"['front_left_wheel', 'front_right_wheel', 'rear_left_wheel', 'rear_right_wheel']",271.4294367050273,150.43004239854633,271.4294367050273,150.43004239854633,-1.6959418534221686,4.118715929739552,-1.6959418534221686,4.118715929739552,0.0,0.0,0.0,0.0
1737149003.8108416,5271,1737149081,135705895,,"['front_left_wheel', 'front_right_wheel', 'rear_left_wheel', 'rear_right_wheel']",271.24772864930344,150.86008479709267,271.24772864930344,150.86008479709267,-1.6959418534221686,4.118715929739552,-1.6959418534221686,4.118715929739552,0.0,0.0,0.0,0.0
1737149003.9095001,5272,1737149081,234508559,,"['front_left_wheel', 'front_right_wheel', 'rear_left_wheel', 'rear_right_wheel']",271.0902483343428,151.25378558449427,271.0902483343428,151.25378558449427,-1.6959418534221686,4.179285281647486,-1.6959418534221686,4.179285281647486,0.0,0.0,0.0,0.0
1737149004.019971,5273,1737149081,344717257,,"['front_left_wheel', 'front_right_wheel', 'rear_left_wheel', 'rear_right_wheel']",270.9206541490006,151.6535433070866,270.9206541490006,151.6535433070866,-1.6959418534221686,4.179285281647486,-1.6959418534221686,4.179285281647486,0.0,0.0,0.0,0.0
1737149004.1180966,5274,1737149081,443534336,,"['front_left_wheel', 'front_right_wheel', 'rear_left_wheel', 'rear_right_wheel']",270.70866141732284,152.1441550575409,270.70866141732284,152.1441550575409,-1.8170805572380375,4.239854633555421,-1.8170805572380375,4.239854633555421,0.0,0.0,0.0,0.0
1737149004.2178626,5275,1737149081,542928476,,"['front_left_wheel', 'front_right_wheel', 'rear_left_wheel', 'rear_right_wheel']",270.5632949727438,152.4954572986069,270.5632949727438,152.4954572986069,-1.8170805572380375,4.239854633555421,-1.8170805572380375,4.239854633555421,0.0,0.0,0.0,0.0
1737149004.3168788,5276,1737149081,642174188,,"['front_left_wheel', 'front_right_wheel', 'rear_left_wheel', 'rear_right_wheel']",270.3694730466384,152.93761356753484,270.3694730466384,152.93761356753484,-1.8776499091459722,4.300423985463356,-1.8776499091459722,4.300423985463356,0.0,0.0,0.0,0.0
1737149004.416489,5277,1737149081,741120012,,"['front_left_wheel', 'front_right_wheel', 'rear_left_wheel', 'rear_right_wheel']",270.1514233797698,153.4282253179891,270.1514233797698,153.4282253179891,-1.8776499091459722,4.300423985463356,-1.8776499091459722,4.300423985463356,0.0,0.0,0.0,0.0
1737149004.5151708,5278,1737149081,839856184,,"['front_left_wheel', 'front_right_wheel', 'rear_left_wheel', 'rear_right_wheel']",270.0060569351908,153.75529981829195,270.0060569351908,153.75529981829195,-1.9382192610539069,4.36099333737129,-1.9382192610539069,4.36099333737129,0.0,0.0,0.0,0.0
1737149004.613479,5279,1737149081,938883997,,"['front_left_wheel', 'front_right_wheel', 'rear_left_wheel', 'rear_right_wheel']",269.78800726832225,154.251968503937,269.78800726832225,154.251968503937,-1.9382192610539069,4.36099333737129,-1.9382192610539069,4.36099333737129,0.0,0.0,0.0,0.0
1737149004.712507,5280,1737149082,37434781,,"['front_left_wheel', 'front_right_wheel', 'rear_left_wheel', 'rear_right_wheel']",269.6365838885524,154.58509993943065,269.6365838885524,154.58509993943065,-1.9987886129618415,4.421562689279225,-1.9987886129618415,4.421562689279225,0.0,0.0,0.0,0.0
1737149004.8125262,5281,1737149082,136744989,,"['front_left_wheel', 'front_right_wheel', 'rear_left_wheel', 'rear_right_wheel']",269.40642035130224,155.0878255602665,269.40642035130224,155.0878255602665,-2.059357964869776,4.4821320411871595,-2.059357964869776,4.4821320411871595,0.0,0.0,0.0,0.0
1737149004.9098096,5282,1737149082,235245426,,"['front_left_wheel', 'front_right_wheel', 'rear_left_wheel', 'rear_right_wheel']",269.1762568140521,155.60266505148397,269.1762568140521,155.60266505148397,-2.059357964869776,4.4821320411871595,-2.059357964869776,4.4821320411871595,0.0,0.0,0.0,0.0
1737149005.0090752,5283,1737149082,334544901,,"['front_left_wheel', 'front_right_wheel', 'rear_left_wheel', 'rear_right_wheel']",269.0127195639007,155.96002422774075,269.0127195639007,155.96002422774075,-2.1199273167777104,4.542701393095094,-2.1199273167777104,4.542701393095094,0.0,0.0,0.0,0.0
1737149005.1193326,5284,1737149082,444649980,,"['front_left_wheel', 'front_right_wheel', 'rear_left_wheel', 'rear_right_wheel']",268.77649909145975,156.46274984857664,268.77649909145975,156.46274984857664,-2.1199273167777104,4.542701393095094,-2.1199273167777104,4.542701393095094,0.0,0.0,0.0,0.0
1737149005.2182312,5285,1737149082,543283503,,"['front_left_wheel', 'front_right_wheel', 'rear_left_wheel', 'rear_right_wheel']",268.5281647486372,156.98364627498486,268.5281647486372,156.98364627498486,-2.180496668685645,4.603270745003028,-2.180496668685645,4.603270745003028,0.0,0.0,0.0,0.0
1737149005.3178468,5286,1737149082,642790281,,"['front_left_wheel', 'front_right_wheel', 'rear_left_wheel', 'rear_right_wheel']",268.3646274984858,157.3288915808601,268.3646274984858,157.3288915808601,-2.180496668685645,4.603270745003028,-2.180496668685645,4.603270745003028,0.0,0.0,0.0,0.0
1737149005.4169462,5287,1737149082,742075305,,"['front_left_wheel', 'front_right_wheel', 'rear_left_wheel', 'rear_right_wheel']",268.1102362204725,157.8619018776499,268.1102362204725,157.8619018776499,-2.2410660205935797,4.663840096910963,-2.2410660205935797,4.663840096910963,0.0,0.0,0.0,0.0
1737149005.5164053,5288,1737149082,841030904,,"['front_left_wheel', 'front_right_wheel', 'rear_left_wheel', 'rear_right_wheel']",267.9406420351302,158.38885523924893,267.9406420351302,158.38885523924893,-2.2410660205935797,4.663840096910963,-2.2410660205935797,4.663840096910963,0.0,0.0,0.0,0.0
1737149005.6146123,5289,1737149082,940270007,,"['front_left_wheel', 'front_right_wheel', 'rear_left_wheel', 'rear_right_wheel']",267.68019382192614,158.77044215626893,267.68019382192614,158.77044215626893,-2.301635372501514,4.724409448818898,-2.301635372501514,4.724409448818898,0.0,0.0,0.0,0.0
1737149005.7135909,5290,1737149083,38450649,,"['front_left_wheel', 'front_right_wheel', 'rear_left_wheel', 'rear_right_wheel']",267.419745608722,159.28528164748636,267.419745608722,159.28528164748636,-2.301635372501514,4.724409448818898,-2.301635372501514,4.724409448818898,0.0,0.0,0.0,0.0
1737149005.8125868,5291,1737149083,137854942,,"['front_left_wheel', 'front_right_wheel', 'rear_left_wheel', 'rear_right_wheel']",267.21986674742584,159.70926711084192,267.21986674742584,159.70926711084192,-2.362204724409449,4.784978800726832,-2.362204724409449,4.784978800726832,0.0,0.0,0.0,0.0
1737149005.9117434,5292,1737149083,236839456,,"['front_left_wheel', 'front_right_wheel', 'rear_left_wheel', 'rear_right_wheel']",266.97758933979406,160.1938219261054,266.97758933979406,160.1938219261054,-2.362204724409449,4.784978800726832,-2.362204724409449,4.784978800726832,0.0,0.0,0.0,0.0
1737149006.0104554,5293,1737149083,335733873,,"['front_left_wheel', 'front_right_wheel', 'rear_left_wheel', 'rear_right_wheel']",266.69897032101755,160.7450030284676,266.69897032101755,160.7450030284676,-2.4227740763173835,4.845548152634767,-2.4227740763173835,4.845548152634767,0.0,0.0,0.0,0.0
1737149006.1093383,5294,1737149083,434325419,,"['front_left_wheel', 'front_right_wheel', 'rear_left_wheel', 'rear_right_wheel']",266.51726226529377,161.114476075106,266.51726226529377,161.114476075106,-2.483343428225318,4.906117504542702,-2.483343428225318,4.906117504542702,0.0,0.0,0.0,0.0
1737149006.2201304,5295,1737149083,545383417,,"['front_left_wheel', 'front_right_wheel', 'rear_left_wheel', 'rear_right_wheel']",266.22652937613566,161.69594185342217,266.22652937613566,161.69594185342217,-2.483343428225318,4.906117504542702,-2.483343428225318,4.906117504542702,0.0,0.0,0.0,0.0
1737149006.3184452,5296,1737149083,643973147,,"['front_left_wheel', 'front_right_wheel', 'rear_left_wheel', 'rear_right_wheel']",265.9479103573592,162.2350090854028,265.9479103573592,162.2350090854028,-2.5439127801332524,4.966686856450636,-2.5439127801332524,4.966686856450636,0.0,0.0,0.0,0.0
1737149006.4172127,5297,1737149083,742358031,,"['front_left_wheel', 'front_right_wheel', 'rear_left_wheel', 'rear_right_wheel']",265.717746820109,162.6892792247123,265.717746820109,162.6892792247123,-2.5439127801332524,4.966686856450636,-2.5439127801332524,4.966686856450636,0.0,0.0,0.0,0.0
1737149006.5160642,5298,1737149083,841471429,,"['front_left_wheel', 'front_right_wheel', 'rear_left_wheel', 'rear_right_wheel']",265.4633555420957,163.17989097516656,265.4633555420957,163.17989097516656,-2.6044821320411873,5.027256208358571,-2.6044821320411873,5.027256208358571,0.0,0.0,0.0,0.0
1737149006.6160266,5299,1737149083,941127357,,"['front_left_wheel', 'front_right_wheel', 'rear_left_wheel', 'rear_right_wheel']",265.2089642640824,163.67655966081162,265.2089642640824,163.67655966081162,-2.6044821320411873,5.027256208358571,-2.6044821320411873,5.027256208358571,0.0,0.0,0.0,0.0
1737149006.7147467,5300,1737149084,39830620,,"['front_left_wheel', 'front_right_wheel', 'rear_left_wheel', 'rear_right_wheel']",264.9666868564507,164.13082980012115,264.9666868564507,164.13082980012115,-2.6650514839491217,5.087825560266505,-2.6650514839491217,5.087825560266505,0.0,0.0,0.0,0.0
1737149006.8143895,5301,1737149084,138812169,,"['front_left_wheel', 'front_right_wheel', 'rear_left_wheel', 'rear_right_wheel']",264.663840096911,164.7122955784373,264.663840096911,164.7122955784373,-2.6650514839491217,5.087825560266505,-2.6650514839491217,5.087825560266505,0.0,0.0,0.0,0.0
1737149006.912475,5302,1737149084,237733471,,"['front_left_wheel', 'front_right_wheel', 'rear_left_wheel', 'rear_right_wheel']",264.457904300424,165.09993943064808,264.457904300424,165.09993943064808,-2.7256208358570566,5.14839491217444,-2.7256208358570566,5.14839491217444,0.0,0.0,0.0,0.0
1737149007.0115292,5303,1737149084,336785838,,"['front_left_wheel', 'front_right_wheel', 'rear_left_wheel', 'rear_right_wheel']",264.1490006056935,165.69351907934586,264.1490006056935,165.69351907934586,-2.7256208358570566,5.14839491217444,-2.7256208358570566,5.14839491217444,0.0,0.0,0.0,0.0
1737149007.1101913,5304,1737149084,435675412,,"['front_left_wheel', 'front_right_wheel', 'rear_left_wheel', 'rear_right_wheel']",263.8885523924894,166.27498485766205,263.8885523924894,166.27498485766205,-2.786190187764991,5.208964264082375,-2.786190187764991,5.208964264082375,0.0,0.0,0.0,0.0
1737149007.2094638,5305,1737149084,535156421,,"['front_left_wheel', 'front_right_wheel', 'rear_left_wheel', 'rear_right_wheel']",263.6220472440945,166.6747425802544,263.6220472440945,166.6747425802544,-2.786190187764991,5.208964264082375,-2.786190187764991,5.208964264082375,0.0,0.0,0.0,0.0
1737149007.31962,5306,1737149084,644453767,,"['front_left_wheel', 'front_right_wheel', 'rear_left_wheel', 'rear_right_wheel']",263.30102967898245,167.26832222895214,263.30102967898245,167.26832222895214,-2.8467595396729255,5.269533615990309,-2.8467595396729255,5.269533615990309,0.0,0.0,0.0,0.0
1737149007.4178462,5307,1737149084,743300765,,"['front_left_wheel', 'front_right_wheel', 'rear_left_wheel', 'rear_right_wheel']",262.9800121138704,167.8679588128407,262.9800121138704,167.8679588128407,-2.8467595396729255,5.269533615990309,-2.8467595396729255,5.269533615990309,0.0,0.0,0.0,0.0
1737149007.5170603,5308,1737149084,842314897,,"['front_left_wheel', 'front_right_wheel', 'rear_left_wheel', 'rear_right_wheel']",262.7619624470018,168.27983040581466,262.7619624470018,168.27983040581466,-2.90732889158086,5.3301029678982434,-2.90732889158086,5.3301029678982434,0.0,0.0,0.0,0.0
1737149007.6184888,5309,1737149084,941350563,,"['front_left_wheel', 'front_right_wheel', 'rear_left_wheel', 'rear_right_wheel']",262.41671714112664,168.90369473046638,262.41671714112664,168.90369473046638,-2.967898243488795,5.390672319806178,-2.967898243488795,5.390672319806178,0.0,0.0,0.0,0.0
1737149007.7152786,5310,1737149085,40696565,,"['front_left_wheel', 'front_right_wheel', 'rear_left_wheel', 'rear_right_wheel']",262.18049666868563,169.34585099939432,262.18049666868563,169.34585099939432,-2.967898243488795,5.390672319806178,-2.967898243488795,5.390672319806178,0.0,0.0,0.0,0.0
1737149007.8151307,5311,1737149085,139953918,,"['front_left_wheel', 'front_right_wheel', 'rear_left_wheel', 'rear_right_wheel']",261.82919442761965,169.97577225923683,261.82919442761965,169.97577225923683,-3.0284675953967293,5.451241671714113,-3.0284675953967293,5.451241671714113,0.0,0.0,0.0,0.0
1737149007.913225,5312,1737149085,238595051,,"['front_left_wheel', 'front_right_wheel', 'rear_left_wheel', 'rear_right_wheel']",261.5142337976984,170.52695336159903,261.5142337976984,170.52695336159903,-3.0284675953967293,5.451241671714113,-3.0284675953967293,5.451241671714113,0.0,0.0,0.0,0.0
1737149008.012954,5313,1737149085,338014612,,"['front_left_wheel', 'front_right_wheel', 'rear_left_wheel', 'rear_right_wheel']",261.2235009085403,171.05996365838885,261.2235009085403,171.05996365838885,-3.089036947304664,5.511811023622047,-3.089036947304664,5.511811023622047,0.0,0.0,0.0,0.0
1737149008.1116772,5314,1737149085,436822306,,"['front_left_wheel', 'front_right_wheel', 'rear_left_wheel', 'rear_right_wheel']",260.9267110841914,171.59297395517868,260.9267110841914,171.59297395517868,-3.089036947304664,5.511811023622047,-3.089036947304664,5.511811023622047,0.0,0.0,0.0,0.0
1737149008.2098372,5315,1737149085,535287493,,"['front_left_wheel', 'front_right_wheel', 'rear_left_wheel', 'rear_right_wheel']",260.6783767413689,172.0411871592974,260.6783767413689,172.0411871592974,-3.1496062992125986,5.572380375529982,-3.1496062992125986,5.572380375529982,0.0,0.0,0.0,0.0
1737149008.308868,5316,1737149085,634229669,,"['front_left_wheel', 'front_right_wheel', 'rear_left_wheel', 'rear_right_wheel']",260.3089036947305,172.6953361599031,260.3089036947305,172.6953361599031,-3.1496062992125986,5.572380375529982,-3.1496062992125986,5.572380375529982,0.0,0.0,0.0,0.0
1737149008.419656,5317,1737149085,745065177,,"['front_left_wheel', 'front_right_wheel', 'rear_left_wheel', 'rear_right_wheel']",259.9757722592368,173.27074500302848,259.9757722592368,173.27074500302848,-3.210175651120533,5.632949727437917,-3.210175651120533,5.632949727437917,0.0,0.0,0.0,0.0
1737149008.5192735,5318,1737149085,844254133,,"['front_left_wheel', 'front_right_wheel', 'rear_left_wheel', 'rear_right_wheel']",259.6062992125984,173.9127801332526,259.6062992125984,173.9127801332526,-3.210175651120533,5.632949727437917,-3.210175651120533,5.632949727437917,0.0,0.0,0.0,0.0
1737149008.6165767,5319,1737149085,942258731,,"['front_left_wheel', 'front_right_wheel', 'rear_left_wheel', 'rear_right_wheel']",259.3640218049667,174.3428225317989,259.3640218049667,174.3428225317989,-3.270745003028468,5.693519079345851,-3.270745003028468,5.693519079345851,0.0,0.0,0.0,0.0
1737149008.7162857,5320,1737149086,42074793,,"['front_left_wheel', 'front_right_wheel', 'rear_left_wheel', 'rear_right_wheel']",258.9884918231375,174.99091459721382,258.9884918231375,174.99091459721382,-3.270745003028468,5.693519079345851,-3.270745003028468,5.693519079345851,0.0,0.0,0.0,0.0
1737149008.816246,5321,1737149086,141133629,,"['front_left_wheel', 'front_right_wheel', 'rear_left_wheel', 'rear_right_wheel']",258.74015748031496,175.42701393095095,258.74015748031496,175.42701393095095,-3.3313143549364024,5.754088431253785,-3.3313143549364024,5.754088431253785,0.0,0.0,0.0,0.0
1737149008.9146419,5322,1737149086,239895058,,"['front_left_wheel', 'front_right_wheel', 'rear_left_wheel', 'rear_right_wheel']",258.35857056329496,176.07510599636583,258.35857056329496,176.07510599636583,-3.3313143549364024,5.754088431253785,-3.3313143549364024,5.754088431253785,0.0,0.0,0.0,0.0
1737149009.0127094,5323,1737149086,338215638,,"['front_left_wheel', 'front_right_wheel', 'rear_left_wheel', 'rear_right_wheel']",257.97698364627496,176.72319806178075,257.97698364627496,176.72319806178075,-3.3918837068443373,5.81465778316172,-3.3918837068443373,5.81465778316172,0.0,0.0,0.0,0.0
1737149009.1128128,5324,1737149086,437981538,,"['front_left_wheel', 'front_right_wheel', 'rear_left_wheel', 'rear_right_wheel']",257.7165354330709,177.15929739551785,257.7165354330709,177.15929739551785,-3.3918837068443373,5.875227135069655,-3.3918837068443373,5.875227135069655,0.0,0.0,0.0,0.0
1737149009.210777,5325,1737149086,536365572,,"['front_left_wheel', 'front_right_wheel', 'rear_left_wheel', 'rear_right_wheel']",257.32283464566933,177.82556026650516,257.32283464566933,177.82556026650516,-3.3918837068443373,5.875227135069655,-3.3918837068443373,5.875227135069655,0.0,0.0,0.0,0.0
1737149009.3107343,5326,1737149086,635349547,,"['front_left_wheel', 'front_right_wheel', 'rear_left_wheel', 'rear_right_wheel']",257.0623864324652,178.26771653543307,257.0623864324652,178.26771653543307,-3.4524530587522713,5.93579648697759,-3.4524530587522713,5.93579648697759,0.0,0.0,0.0,0.0
1737149009.4095244,5327,1737149086,734278206,,"['front_left_wheel', 'front_right_wheel', 'rear_left_wheel', 'rear_right_wheel']",256.6626287098728,178.93397940642038,256.6626287098728,178.93397940642038,-3.4524530587522713,5.93579648697759,-3.4524530587522713,5.93579648697759,0.0,0.0,0.0,0.0
1737149009.5198612,5328,1737149086,845125081,,"['front_left_wheel', 'front_right_wheel', 'rear_left_wheel', 'rear_right_wheel']",256.2568140520896,179.60024227740763,256.2568140520896,179.60024227740763,-3.5735917625681406,5.996365838885524,-3.5735917625681406,5.996365838885524,0.0,0.0,0.0,0.0
1737149009.6177697,5329,1737149086,943269421,,"['front_left_wheel', 'front_right_wheel', 'rear_left_wheel', 'rear_right_wheel']",255.96608116293154,180.2725620835857,255.96608116293154,180.2725620835857,-3.5735917625681406,5.996365838885524,-3.5735917625681406,5.996365838885524,0.0,0.0,0.0,0.0
1737149009.7174149,5330,1737149087,43226013,,"['front_left_wheel', 'front_right_wheel', 'rear_left_wheel', 'rear_right_wheel']",255.54815263476684,180.78134463961237,255.54815263476684,180.78134463961237,-3.634161114476075,6.0569351907934585,-3.634161114476075,6.0569351907934585,0.0,0.0,0.0,0.0
1737149009.8157914,5331,1737149087,141458501,,"['front_left_wheel', 'front_right_wheel', 'rear_left_wheel', 'rear_right_wheel']",255.16050878255604,181.4052089642641,255.16050878255604,181.4052089642641,-3.634161114476075,6.0569351907934585,-3.634161114476075,6.0569351907934585,0.0,0.0,0.0,0.0
1737149009.9158459,5332,1737149087,240899412,,"['front_left_wheel', 'front_right_wheel', 'rear_left_wheel', 'rear_right_wheel']",254.8273773470624,181.96244700181708,254.8273773470624,181.96244700181708,-3.634161114476075,6.0569351907934585,-3.634161114476075,6.0569351907934585,0.0,0.0,0.0,0.0
1737149010.0148044,5333,1737149087,339589947,,"['front_left_wheel', 'front_right_wheel', 'rear_left_wheel', 'rear_right_wheel']",254.47001817080556,182.53785584494247,254.47001817080556,182.53785584494247,-3.634161114476075,6.0569351907934585,-3.634161114476075,6.0569351907934585,0.0,0.0,0.0,0.0
1737149010.1124427,5334,1737149087,438428374,,"['front_left_wheel', 'front_right_wheel', 'rear_left_wheel', 'rear_right_wheel']",254.19139915202908,183.21623258631132,254.19139915202908,183.21623258631132,-3.634161114476075,6.0569351907934585,-3.634161114476075,6.0569351907934585,0.0,0.0,0.0,0.0
1737149010.212084,5335,1737149087,537545618,,"['front_left_wheel', 'front_right_wheel', 'rear_left_wheel', 'rear_right_wheel']",253.75529981829197,183.71290127195638,253.75529981829197,183.71290127195638,-3.6947304663840095,6.0569351907934585,-3.6947304663840095,6.0569351907934585,0.0,0.0,0.0,0.0
1737149010.3112392,5336,1737149087,636355407,,"['front_left_wheel', 'front_right_wheel', 'rear_left_wheel', 'rear_right_wheel']",253.35554209569958,184.3488794669897,253.35554209569958,184.3488794669897,-3.6947304663840095,6.0569351907934585,-3.6947304663840095,6.0569351907934585,0.0,0.0,0.0,0.0
1737149010.410794,5337,1737149087,735557900,,"['front_left_wheel', 'front_right_wheel', 'rear_left_wheel', 'rear_right_wheel']",253.02846759539673,184.90006056935192,253.02846759539673,184.90006056935192,-3.6947304663840095,6.0569351907934585,-3.6947304663840095,6.0569351907934585,0.0,0.0,0.0,0.0
1737149010.5095334,5338,1737149087,834512621,,"['front_left_wheel', 'front_right_wheel', 'rear_left_wheel', 'rear_right_wheel']",252.65899454875833,185.48758328285888,252.65899454875833,185.48758328285888,-3.6947304663840095,6.0569351907934585,-3.6947304663840095,6.0569351907934585,0.0,0.0,0.0,0.0
1737149010.6199648,5339,1737149087,945278023,,"['front_left_wheel', 'front_right_wheel', 'rear_left_wheel', 'rear_right_wheel']",252.2350090854028,186.17201695941853,252.2350090854028,186.17201695941853,-3.6947304663840095,6.0569351907934585,-3.6947304663840095,6.0569351907934585,0.0,0.0,0.0,0.0
1737149010.718287,5340,1737149088,43870128,,"['front_left_wheel', 'front_right_wheel', 'rear_left_wheel', 'rear_right_wheel']",251.85342216838282,186.80799515445185,251.85342216838282,186.80799515445185,-3.7552998182919444,6.0569351907934585,-3.7552998182919444,6.0569351907934585,0.0,0.0,0.0,0.0
1737149010.8170679,5341,1737149088,142627232,,"['front_left_wheel', 'front_right_wheel', 'rear_left_wheel', 'rear_right_wheel']",251.52634766807995,187.3167777104785,251.52634766807995,187.3167777104785,-3.7552998182919444,6.0569351907934585,-3.7552998182919444,6.0569351907934585,0.0,0.0,0.0,0.0
